club,name_of_stadium,lon,lat
PSS Sleman,Maguwoharjo Stadium,-7.75051,110.418
Al-Mina'a SC,Al Mina'a Stadium,30.552356,47.778155
Lampang F.C.,Lampang Province Stadium,18.302664,99.473113
NK Bela Krajina,Loka Stadium,45.56648333,15.19025556
Al-Wathba SC,Homs Municipal Stadium,34.729861,36.697917
Rayong F.C.,Rayong Province Central Stadium,12.68,101.235278
Medea Olympic,Stade Imam Lyes de Médéa,36.261667,2.769722
SC Heerenveen,Abe Lenstra Stadion,52.958611,5.936111
Getafe CF,Coliseum Alfonso Pérez,40.325556,-3.714722
RC Kouba,Mohamed Benhaddad Stadium,36.7295,3.09002
Ancona-Matelica,Stadio del Conero,43.56425383,13.526144
San Salvador F.C.,Estadio Cuscatlán,13.681089,-89.222358
FK Jablonec,Chance Arena,50.714964,15.162225
Cowdenbeath F.C.,North End Park,56.1144,-3.3428
Chamchuri United F.C.,Chulalongkorn University Stadium,13.7375,100.525833
CF Talavera de la Reina,Q5639290,39.965597222222,-4.8218888888889
CS Constantine,Stade Mohamed Hamlaoui,36.349167,6.625833
FK Jedinstvo Bijelo Polje,Gradski stadion,43.030388888889,19.742416666667
Næstved BK,Næstved Stadion,55.2231,11.7664
FC Etzella Ettelbruck,Stade Am Deich,49.840277777778,6.0955555555556
Tartu JK Welco Elekter,Tamme Stadium,58.366536,26.713728
NK Maribor,Ljudski vrt,46.5625,15.640556
FK Sileks,Gradski stadion Kratovo,42.0808178,22.1610253
FK Kom,Stadion Zlatica,42.4651,19.2951
Heider SV,Q2326132,54.1897,9.08722
US Lusitanos Saint-Maur,Adolphe-Chéron Stadium,48.80707,2.49399
Dundee F.C.,Dens Park,56.475264,-2.973194
Kyoto Sanga FC,Nishikyogoku Athletic Stadium,34.993478,135.713961
Empoli F.C.,Stadio Carlo Castellani,43.726389,10.955
Mahasarakham City F.C.,Mahasarakham Province Stadium,16.15411,103.316117
Arema FC,Kanjuruhan Stadium,-8.149333,112.573975
SV Lichtenberg 47,Hans-Zoschke-Stadion,52.51665194,13.48698389
Íþróttabandalag Akraness,Akranesvöllur,64.317656,-22.059753
FC Ararat-Armenia,Republican Stadium,40.171944,44.525833
Persija Jakarta,Gelora Bung Karno Stadium,-6.218578,106.802511
Q10388046,Victor Andrade de Brito Municipal Stadium,-19.761,-43.882916666667
Deltras F.C.,Gelora Delta Stadium,-7.44772,112.705929
PFC Belasitsa Petrich,Tsar Samuil Stadium,41.3892,23.1994
MFK Ružomberok,Štadión MFK Ružomberok,49.0825,19.28388889
1. FC Slovácko,Městský fotbalový stadion Miroslava Valenty,49.065556,17.471461
Guédiawaye FC,Stade Al Djigo,14.75,-17.4
Widad Fez,Fez Stadium,34.00283,-4.968851
FC Alay,Suyumbayev Stadion,40.5207,72.8048
A.C. Reggiana 1919,Mapei Stadium – Città del Tricolore,44.714722,10.649722
Aalesunds FK,Color Line Stadion,62.46944444,6.1875
NK Čelik Zenica,Bilino Polje Stadium,44.20575,17.907083
FC Gueugnon,Stade Jean Laville,46.595086,4.056058
Maidenhead United F.C.,York Road,51.519881,-0.717989
PEC Zwolle,IJsseldelta Stadion,52.517292,6.121911
Olympique Lyonnais,Parc Olympique Lyonnais,45.765224,4.982131
Íþróttabandalag Vestmannaeyja,Hásteinsvöllur,63.439414,-20.28795
Persijap Jepara,Gelora Bumi Kartini Stadium,-6.583517,110.66369
FC Sète,Stade Louis Michel,43.412514,3.670547
Kilmarnock F.C.,Rugby Park,55.604225,-4.508122
Mqabba F.C.,Ta' Qali National Stadium,35.894863888889,14.415372222222
Prescot Cables F.C.,Valerie Park,53.4319,-2.80481
Cavalry FC,ATCO Field,50.8837,-114.0988
Stalybridge Celtic F.C.,Bower Fold,53.475314,-2.043864
FC Mauerwerk,Rudolf-Tonn-Stadion,48.129167,16.468611
Vicenza Calcio,Stadio Romeo Menti,45.544167,11.555556
KAA Gent,Jules Ottenstadion,51.031389,3.766111
Almere City FC,Mitsubishi Forklift Stadion,52.394444,5.240556
Deportes Temuco,Estadio Municipal Germán Becker,-38.742778,-72.619722
Ismaily SC,Ismailia Stadium,30.60194444,32.27388889
Hobro IK,DS Arena,56.6333,9.81703
Steinkjer FK,Guldbergaunet Stadion,64.021452,11.510496
SHB Da Nang F.C.,Chi Lang Stadium,16.069609,108.216475
SV Waldhof Mannheim,Carl-Benz-Stadion,49.479444,8.5025
Amiens SC,Stade de la Licorne,49.894209,2.263312
Middlesbrough F.C.,Riverside Stadium,54.578333333333,-1.2169444444444
1. FC Magdeburg,MDCC-Arena,52.125556,11.670833
Sociedad Deportiva Ponferradina,Estadio El Toralín,42.5574,-6.599972
NK Domžale,Domžale Sports Park,46.136967,14.602343
Clube Náutico Capibaribe,Estádio dos Aflitos,-8.040556,-34.896667
Stade de Reims,Stade Auguste Delaune,49.246667,4.025
Sporting Toulon Var,Bon Rencontre Stadium,43.12611111,5.90222222
Club Libertad,Estadio Dr. Nicolás Léoz,-25.277846,-57.611039
Xerez Deportivo Fútbol Club,Estadio Municipal de Bosco,36.689167,-6.120278
Aduana Stars,Agyeman Badu Stadium,7.26522222,-2.86536111
FK Sutjeska Nikšić,Gradski stadion,42.784947,18.953731
FC Jeunesse Canach,Stade Rue de Lenningen,49.6101,6.33467
SSV Reutlingen 05,Stadion an der Kreuzeiche,48.478611,9.19
Club Guaraní,Estadio Rogelio Livieres,-25.30344444,-57.61594444
Al-Adalh FC,Prince Abdullah bin Jalawi Stadium,25.305833,49.612778
Gandzasar-Kapan FC,Gandzasar Stadium,39.207787,46.400674
Galway United F.C.,Eamonn Deacy Park,53.284658,-9.056258
CS Pandurii Târgu Jiu,Stadionul Tudor Vladimirescu,45.043639,23.270056
F.C. Rieti,Stadio Centro d'Italia – Manlio Scopigno,42.410954,12.886797
Sitra Club,Bahrain National Stadium,26.153594,50.543664
FC Breitenrain Bern,Spitalacker,46.9545386,7.4538628
Scarborough Athletic F.C.,Flamingo Land Stadium,54.26961111,-0.41372222
UE Olot,Estadi Municipal d'Olot,42.1861,2.47215
AD Fafe,Parque Municipal dos Desportos de Fafe,41.44716111,-8.16819722
CS Universitatea Craiova,Stadionul Ion Oblemenco,44.313889,23.784167
Coton Sport FC de Garoua,Roumdé Adjia Stadium,9.32611111,13.39916667
Grasshopper Club Zürich,Letzigrund,47.382791,8.503801
Dunaújváros PASE,Dunaferr Arena,46.955555555556,18.947222222222
Tanjong Pagar United FC,Queenstown Stadium,1.29589,103.802
F.C. Pars Jonoubi Jam,Takhti Stadium (Jam),27.820972222222,52.336972222222
Saham Club,Sohar Regional Sports Complex,24.334584,56.743017
Debreceni VSC,Stadion Oláh Gábor Út,47.549573,21.638882
SG Sonnenhof Großaspach,WIRmachenDRUCK Arena,48.980485,9.393005
Kickers Offenbach,Sparda Bank Hessen Stadium,50.094444,8.798611
Dalkurd FF,Domnarvsvallen,60.495,15.434166666667
F.C. Domagnano,Campo sportivo di Domagnano,43.9453,12.4661
Lija Athletic F.C.,Ta' Qali National Stadium,35.894863888889,14.415372222222
N.E.C.,Stadion de Goffert,51.8225,5.836667
York City F.C.,York Community Stadium,53.984722222222,-1.0527777777778
Maccabi kabilio Jaffa F.C.,Hatikva Neighborhood Stadium,32.049986,34.786956
Yeni Malatyaspor,Malatya İnönü Stadium,38.352178,38.330494
D.C. United,Audi Field,38.868504,-77.012935
S.C. Beira-Mar,Estádio Municipal de Aveiro,40.6475,-8.593611
Tishreen SC,Latakia Sports City Stadium,35.56055556,35.74472222
CSM Deva,Stadionul Cetate,45.889722,22.901389
Asociación Deportiva San Carlos,Estadio Carlos Ugalde Álvarez,10.334217,-84.43445
AS Saint-Étienne,Stade Geoffroy-Guichard,45.460833,4.39
NSÍ Runavík,Runavík Stadium,62.105833,-6.723333
FC Orenburg,Gazovik Stadium,51.785063888889,55.221080555556
FK Teteks,Gradski stadion Tetovo,42.018692,20.978179
Badak Lampung FC,Marora Stadium,-1.87972222,136.22777778
CD Cristo Atlético,Estadio Nueva Balastera,42.011739,-4.516136
Club 12 de Octubre,Estadio Juan Canuto Pettengill,-25.39591667,-57.34069444
FK Berane,Gradski stadion,42.843342,19.866285
JS Saint-Pierroise,Stade Michel Volnay,-21.3387,55.4681
Persepolis F.C.,Azadi Stadium,35.724417,51.275528
Newtown A.F.C.,Latham Park,52.5115,-3.32288
Altona Magic SC,Paisley Park Soccer Complex,-37.846667,144.856944
FF Jaro,Jakobstads Centralplan,63.673611,22.695
Forge FC,Tim Hortons Field,43.2526,-79.8302
Cape Town City F.C.,Cape Town Stadium,-33.903461111111,18.411152777778
Liga Deportiva Alajuelense,Estadio Alejandro Morera Soto,10.021667,-84.208889
Danubio F.C.,Jardines Del Hipódromo,-34.838719,-56.132281
SV Ried,Keine Sorgen Arena,48.207778,13.478333
FC Petržalka,Stadium FC Petržalka 1898,48.1333,17.1167
FC Saburtalo Tbilisi,Mikheil Meskhi Stadium,41.709617,44.746247
Plymouth Argyle F.C.,Home Park,50.388055555556,-4.1508333333333
Inter Miami CF,Miami Freedom Park,25.78055556,-80.20555556
Qviding FIF,Valhalla IP,57.701386,11.988817
Jeonbuk Hyundai Motors FC,Jeonju World Cup Stadium,35.868071,127.06448
Alacranes de Durango,Estadio Francisco Zarco,24.01433056,-104.68690833
Paide Linnameeskond,Paide linnastaadion,58.87845,25.54063
Stockport County F.C.,Edgeley Park,53.399722222222,-2.1663888888889
Boreham Wood F.C.,Meadow Park,51.661944,-0.272222
FC Dinamo-Auto Tiraspol,Dinamo-Auto Stadium,46.81194,29.55278
R.C. Lens,Stade Bollaert-Delelis,50.432778,2.814722
QNK Quang Nam F.C.,Tam Kỳ Stadium,15.56,108.50666667
Riga FC,Skonto Stadium,56.961372,24.116408
Club Portugalete,Q12261739,43.31833333,-3.02722222
HNK Gorica,Stadion Maksimir,45.818858333333,16.018077777778
Club River Plate Asunción,Q5848366,-25.3051282,-57.5981715
Chennaiyin FC,"Jawaharlal Nehru Stadium, Chennai",13.08555556,80.27166667
FC Juárez,Estadio Olímpico Benito Juárez,31.75305,-106.467814
Willem II,Koning Willem II Stadion,51.542778,5.066944
Club Green Streets,Galolhu National Stadium,4.1740833333333,73.513083333333
St. Mirren F.C.,Love Street,55.85305556,-4.42861111
S.C.U. Torreense,Campo Manuel Marques,39.09487778,-9.25659444
TB Tvøroyri,Við Stórá,61.5623,-6.8521
Maccabi Netanya F.C.,Netanya Stadium,32.294397,34.864433
Zob Ahan F.C.,Foolad Shahr Stadium,32.4828,51.4214
Crawley Town F.C.,The Peoples Pension Stadium,51.099706,-0.194767
FC Vitebsk,Vitebsky Central Sport Complex,55.198472222222,30.229305555556
América Futebol Clube (MG),Estádio Independência,-19.908333,-43.917778
Kapaz PFC,Ganja City Stadium,40.706111111111,46.361944444444
Lechia Gdańsk,Stadion Energa Gdańsk,54.39,18.640278
Tromsø IL,Alfheim Stadion,69.648872,18.935042
FC Anyang,Anyang Sports Complex,37.405397,126.946446
FK Bodø/Glimt,Aspmyra Stadion,67.2775,14.384166666667
Pharco FC,Borg El Arab Stadium,30.9994,29.7293
Atlético Chiriquí,Estadio San Cristóbal,8.420278,-82.4425
Qatar SC,Qatar SC Stadium,25.317155,51.512366
Fútbol Consultants Moravia,"Estadio Jorge ""Cuty"" Monge",9.889628,-84.049322
MFK Tatran Liptovský Mikuláš,Stadium Liptovský Mikuláš,48.0883,19.6133
Panetolikos F.C.,Panetolikos Stadium,38.629967,21.411747
CS Mioveni,Stadionul Dacia,44.960169,24.940641
Clube de Regatas do Flamengo,Maracanã Stadium,-22.912166666667,-43.230163888889
Persegres Gresik United,Gelora Joko Samudro Stadium,-7.1853888888889,112.65075
FC Tulsa,Oneok Field,36.159722,-95.988056
Gombe United F.C.,Pantami Stadium,10.27652778,11.16847222
Alloa Athletic F.C.,Recreation Park,56.1166,-3.77864
PFC Marek Dupnitsa,Bonchuk Stadium,42.275556,23.135556
Valencia CF Mestalla,Ciudad Deportiva de Paterna,39.5425,-0.45555556
Real Zaragoza,La Romareda,41.636592,-0.901822
Hartlepool United F.C.,Victoria Park,54.689139,-1.212722
ŠKF Sereď,Stadium Myjava,48.76118,17.5656
زعيم ليبيا,Stadium Tripoli International,32.859869,13.135878
Daejeon Hana Citizen FC,Daejeon World Cup Stadium,36.365229,127.325056
Rot Weiss Ahlen,Wersestadion,51.753333,7.905
U.S. Triestina Calcio 1918,Stadio Nereo Rocco,45.6225,13.792778
NA Hussein Dey,Stade Frères Zioui,36.743889,3.091944
U.S. Pistoiese 1921,Stadio Marcello Melani,43.940833,10.914722
Gold Eagles,Estadio Alberto Grisales,6.1466776,-75.3727535
FC Emmen,JenS Vesting,52.774722,6.945556
Galatasaray S.K.,nef Stadium,41.103388888889,28.991
Free State Stars F.C.,Goble Park,-28.231667,28.305
F.C. United of Manchester,Broadhurst Park,53.5167,-2.1804
Ayacucho FC,Estadio Ciudad de Cumaná,-13.151638888889,-74.22
Altrincham F.C.,Moss Lane,53.383436,-2.335158
F.C. Arouca,Estádio Municipal de Arouca,40.92833333,-8.24861111
Des Moines Menace,Valley High School,41.588,-93.754
Wycombe Wanderers F.C.,Adams Park,51.630555555556,-0.80027777777778
FC Botoșani,Stadionul Municipal,47.7483,26.6519
UB Conquense,Estadio La Fuensanta,40.077222,-2.140278
Lautoka F.C.,Churchill Park,-17.60666667,177.45222222
ACS Foresta Suceava,Stadionul Areni,45.258058,27.94715
Forward Madison FC,Breese Stevens Field,43.0831,-89.3731
KS Burreli,Liri Ballabani Stadium,41.60896111,20.006975
Club Almirante Brown,Estadio Fragata Presidente Sarmiento,-34.694981,-58.586814
NK Varteks,Stadion Anđelko Herjavec,46.31313611,16.34172778
PSIS Semarang,Jatidiri Stadium,-7.026052,110.409524
Cliftonville F.C.,Solitude,54.619517,-5.947272
Goiás Esporte Clube,Estádio Serra Dourada,-16.698889,-49.233889
Sabah F.C.,Likas Stadium,5.9833555555556,116.09554444444
PEPO Lappeenranta,Kimpinen Sports Centre,61.062778,28.198611
Daejeon Korail FC,Incheon Munhak Sports Complex,37.434984,126.690699
FK Andijan,Soghlom Avlod Stadium,40.813663,72.329307
Tauro F.C.,Estadio Rommel Fernández,9.035833,-79.469444
Pontevedra CF,Pasarón Stadium,42.438,-8.641
FC Eintracht Rheine,Q1509496,52.2946,7.43189
U.S. Viterbese 1908,Stadio Enrico Rocchi,42.42347222,12.10052778
PFC Pirin Gotse Delchev,Gradski stadion,43.362349,19.362245
Sandvikens IF,Jernvallen,60.608888888889,16.773055555556
Everton F.C.,Goodison Park,53.438888888889,-2.9663888888889
Guadalupe Fútbol Club,"Estadio José Joaquín ""Coyella"" Fonseca",9.9461111111111,-84.056666666667
O.F.K. Beograd,Omladinski Stadium,44.815456,20.494047
FC Leningradets Leningrad Oblast,Roshchino,60.256388888889,29.603055555556
Al-Rashid,Al Karkh Stadium,33.316641,44.365014
Tarsus Idman Yurdu SK,Tarsus Stadium,36.91361111,34.88611111
Apollon Smyrna F.C.,Georgios Kamaras Stadium,38.028156,23.741033
ASM Belfort,Q3495846,47.6552,6.85585
Algeciras CF,Estadio Nuevo Mirador,36.16333333,-5.46527778
Miramar Rangers,David Farrington Park,-41.302905555556,174.82463055556
Portsmouth F.C.,Fratton Park,50.796388888889,-1.0638888888889
PSDS Deli Serdang,Baharuddin Siregar Stadium,3.550368,98.864509
Fimleikafélag Hafnarfjarðar,Kaplakriki,64.075833,-21.938611
Piast Gliwice,Stadion Piast,50.306583,18.695866
MVV Maastricht,De Geusselt,50.8575,5.717778
Widzew Łódź,Stadion Widzewa,51.765,19.511667
FK Čukarički,Stadion Čukarički,44.772658,20.421639
Black Leopards F.C.,Peter Mokaba Stadium,-23.924689,29.468765
Chattanooga Red Wolves SC,Chattanooga Christian School,35.014,-85.322
Deportivo Independiente Medellín,Atanasio Girardot Sports Complex,6.2568,-75.590172
AS Kigali,Stade Régional Nyamirambo,-1.978106,30.044125
JSM Skikda,Stade 20 Août 1955 (Skikda),36.8667,6.9
AC Nagano Parceiro,Minami Nagano Sports Park Stadium,36.58035278,138.1675556
FC Nitra,Štadión pod Zoborom,48.321857,18.087506
CA Bordj Bou Arréridj,Stade 20 Août 1955,36.0667,4.76667
Knattspyrnufélag Akureyrar,Akureyrarvöllur,65.686083,-18.095211
F.C. Copenhagen,Parken Stadium,55.702469,12.572203
Accra Great Olympics F.C.,Accra Sports Stadium,5.5513888888889,-0.19194444444444
Dover Athletic F.C.,Crabble Athletic Ground,51.137814,1.284883
Granada CF,Estadio Nuevo Los Cármeness,37.152967,-3.595736
FC Hlučín,Q12039421,49.8991,18.1953
Dulwich Hamlet F.C.,Champion Hill,51.461231,-0.084061
CD Toledo,Estadio Salto del Caballo,39.869,-4.0180888888889
FC Zürich,Letzigrund,47.382791,8.503801
FC Mika,Mika Stadium,40.149373,44.476449
CD Alfaro,Q5848077,42.1664,-1.74833
MŠK Rimavská Sobota,Na Zahradkach Stadium,48.3831,20.0076
FC Lida,Yunost Stadium,53.8931,25.2903
Sohar SC,Sohar Regional Sports Complex,24.334584,56.743017
HB Køge,Herfølge Stadion,55.413578,12.134153
Fujieda MYFC,Fujieda Soccer Stadium,34.88146944,138.2327639
A.S.D. Casertana Calcio,Stadio Alberto Pinto,41.074486111111,14.346516666667
Atromitos F.C.,Peristeri Stadium,38.004858,23.689756
Tigres UANL,Estadio Universitario,25.722805555556,-100.31205555556
FC Petrolul Ploiești,Stadionul Ilie Oană,44.940278,26.033333
CaracasFC,Jalisco Stadium,20.705,-103.328139
Erchim,National Sports Stadium,47.902211,106.916236
FC Salyut Belgorod,Salyut Stadium,50.602689,36.579206
Pogoń Szczecin,Stadion Florian Kryger,53.43657611,14.51865806
Helmond Sport,Stadion De Braak,51.486389,5.68
The New Saints F.C.,Park Hall,52.8759,-3.02631
Livingston F.C.,Almondvale Stadium,55.886167,-3.522872
FK Teplice,Na Stínadlech,50.640075,13.817936
SC Eendracht Aalst,Pierre Cornelisstadion,50.950278,4.044444
Salford City F.C.,Moor Lane,53.513638888889,-2.2767777777778
C.D. Palestino,Estadio Municipal de La Cisterna,-33.52083333,-70.67277778
Bucheon FC 1995,Bucheon Stadium,37.502567,126.798999
Jarabacoa FC,Estadio Olímpico,10.491278,-66.885492
FC Matera,Stadio XXI Settembre-Franco Salerno,40.6736,16.6036
HamKam,Briskeby Arena,60.795556,11.092222
Reading F.C.,Madejski Stadium,51.422222222222,-0.98277777777778
FC Porto,Estádio do Dragão,41.161758,-8.583933
Omonia Aradippou,Aradippou Municipal Stadium,34.948617,33.587873
Deportes Quindío,Estadio Centenario,4.515307,-75.698447
Aston Villa F.C.,Villa Park,52.509166666667,-1.8847222222222
Ulaanbaatar City FC,G-Mobile Arena,47.8553,106.7893
FC Winterthur,Stadion Schützenwiese,47.501389,8.716389
AS Marsa,Stade Abdelaziz Chtioui,36.875,10.32
Once Caldas,Estadio Palogrande,5.056233,-75.489807
FC Stade Nyonnais,Centre sportif de Colovray,46.370711,6.226201
Pirata F.C,Estadio Francisco Mendoza Pizarro,-5.98898,-79.7527
Chuncheon Citizen FC,Chuncheon Songam Sports Town,37.855952,127.690945
FC Novosibirsk,Spartak Stadium,55.03866667,82.92505556
Pakhtakor Tashkent FK,Pakhtakor Markaziy Stadium,41.315522,69.260244
FC Kaluga,Q27997018,54.528333333333,36.173611111111
FC Viktoria Köln,Sportpark Höhenberg,50.9452,7.03039
FK Rudar Prijedor,Gradski stadion,44.955062,16.308147
Arsenal F.C.,Emirates Stadium,51.555,-0.10861111111111
Yokohama FC,Nippatsu Mitsuzawa Stadium,35.469166666667,139.60361111111
Persib Bandung,Siliwangi Stadium,-6.910312,107.619367
Gimnasia y Esgrima de Jujuy,Estadio 23 de Agosto,-24.198611,-65.290833
Persikab Bandung,Si Jalak Harupat Stadium,-6.996667,107.529722
C.D. Tenerife,Estadio Heliodoro Rodríguez López,28.463055555556,-16.260555555556
Odense Boldklub,Odense Stadium,55.397771,10.350055
CR Belouizdad,Stade 20 Août 1955,36.745633,3.078511
Caracas Fútbol Club,Estadio Olímpico,10.491278,-66.885492
PSV Eindhoven,Philips Stadion,51.4417,5.4674
Llaneros FC,Estadio Rafael Calles Pinto,9.035267,-69.765814
Othellos Athienou F.C.,Othellos Athienou Stadium,35.062017,33.532715
Sagan Tosu,Tosu Stadium,33.371944,130.520278
Barranquilla F.C.,Estadio Metropolitano Roberto Meléndez,10.92686111,-74.80072222
Hunan Billows F.C.,Yiyang Stadium,28.55509,112.352064
SV Türkgücü-Ataspor München,Olympic Stadium of Munich,48.173055555556,11.546666666667
A.C. Gozzano,Stadio Alfredo d'Albertas,45.757459,8.418694
Manchester City F.C.,City of Manchester Stadium,53.483055555556,-2.2002777777778
N.K. Zagreb,Stadion Kranjčevićeva,45.804722,15.960833
Heart of Midlothian F.C.,Tynecastle Park,55.939055555556,-3.2324444444444
Ipswich Town F.C.,Portman Road,52.055061111111,1.1448305555556
Serbian White Eagles FC,Centennial Park Stadium,43.6536,-79.5844
Mjøndalen IF,Mjøndalen Stadion,59.746949,10.014616
S.S. Cosmos,Stadio Olimpico,43.97125,12.476972
Aris Thessaloniki F.C.,Kleanthis Vikelidis Stadium,40.600069,22.9695
Wynnum District SC,"Carmichael Park, Tingalpa",-27.468056,153.123611
Santos Laguna,Territorio Santos Modelo,25.6304,-103.38
U.S. Fermana,Stadio Bruno Recchioni,43.1672,13.73
Fagiano Okayama,Kanko Stadium,34.680714,133.919494
Rocha F.C.,Estadio Municipal Doctor Mario Sobrero,-34.486608,-54.324539
FC SKA Rostov-on-Don,SKA SKVO Stadium,47.27166667,39.72777778
Seinäjoen Jalkapallokerho,OmaSp Stadion,62.778469444444,22.815588888889
F.C. Vizela,Estádio do Futebol Clube de Vizela,41.38872222,-8.30751111
Erbil SC,Franso Hariri Stadium,36.172582,44.011483
Sporting de Gijón B,Escuela de Fútbol de Mareo,43.4981,-5.68056
SønderjyskE Fodbold,Sydbank Park,55.261359,9.487791
Club Deportivo Capiatá,Estadio Lic. Erico Galeano Segovia,-25.360638888889,-57.437555555556
Al-Shorta SC,Abbasiyyin Stadium,33.528333333333,36.298333333333
FC Dornbirn 1913,Stadion Birkenwiese,47.4164,9.72417
Arminia Bielefeld,Bielefelder Alm,52.031389,8.516944
Bogor FC,Persikabo Stadium,-6.476573,106.825181
Balıkesirspor,Balıkesir Atatürk Stadium,39.6415,27.8877
Montevideo Wanderers Fútbol Club,Estadio Viera,-34.861111111111,-56.204166666667
JK Narva Trans,Narva Kreenholmi Stadium,59.36347,28.18465
Haverfordwest County A.F.C.,Bridge Meadow Stadium,51.8092,-4.96747
Motor Lublin,Arena Lublin,51.2319,22.5575
Raith Rovers F.C.,Stark's Park,56.09981389,-3.16833611
Managua F.C.,Estadio Olímpico del IND Managua,12.131667,-86.285
K.V. Kortrijk,Guldensporen Stadion,50.830278,3.248889
FK Mladá Boleslav,Městský stadion,50.427083,14.914783
CD Ibiza Islas Pitiusas,Estadi Municipal de Can Misses,38.9138,1.41511
Ironi Kiryat Shmona F.C.,Kiryat Shmona Municipal Stadium,33.207894,35.575629
Tottenham Hotspur F.C.,Tottenham Hotspur Stadium,51.604444444444,-0.066388888888889
Bahlinger SC,Kaiserstuhlstadion,48.1191,7.74351
Los Angeles FC,Banc of California Stadium,34.013,-118.285
Baleares FC,Q8261189,39.578888888889,2.6655555555556
PAE Kerkyra,Kerkyra Stadium,39.611364,19.915836
A.C. Crema 1908,Stadio Giuseppe Voltini,45.357778,9.675556
Paganese Calcio 1926,Stadio Marcello Torre,40.740231,14.607075
FC Volyn Lutsk,Avanhard Stadium,50.754167,25.3375
VfL Halle 1896,Stadion am Zoo,51.239083,7.105083
SpVgg Bayreuth,Hans-Walter-Wild-Stadion,49.945278,11.586944
La Roche VF,Stade Henri Desgrange,46.671389,-1.440833
Manama Club,Bahrain National Stadium,26.153594,50.543664
Würzburger Kickers,flyeralarm Arena,49.767194444444,9.9329444444444
TSV Buchbach,Q1758537,48.3149,12.2759
Club Atlético Morelia,Morelos Stadium,19.718742,-101.233622
Cobreloa,Estadio Zorros del Desierto,-22.46027778,-68.92055556
AS Mangasport,Stade Henri-Sylvoz,-1.5591111111111,13.22725
FC DAC 1904 Dunajská Streda,DAC Stadion,47.99888889,17.61833333
FK Sūduva Marijampolė,ARVI Football Arena,54.574547,23.365392
AS Aïn M'lila,Stade des Frères Demane Debbih,36.0333,6.58333
FC Borjomi,Jemal Zeinklishvili Stadium,41.843055555556,43.388611111111
SC Bastia,Stade Armand Cesari,42.6514,9.442619
CD Utrera,Q21006290,37.190649,-5.77053
Servette FC,Stade de Genève,46.177778,6.1275
Sichuan Jiuniu F.C.,Chengdu Longquanyi Football Stadium,30.615778,104.307826
S.C. Faetano,Stadio Olimpico,43.97125,12.476972
FC Amkar Perm,Zvezda,57.990694,56.244636
Paksi SE,Stadion PSE,46.633708333333,18.852552777778
Oldham Athletic A.F.C.,Boundary Park,53.555277777778,-2.1286111111111
Olimpia Elbląg,City Stadium Elbląg,54.16583333,19.42111111
Bogotá F.C.,Estadio Metropolitano de Techo,4.623545,-74.135611
Union Sportive de Ben Guerdane,Stade 7 Mars,33.13305556,11.21611111
Cibao FC,Estadio Cibao FC,19.44527778,-70.79638889
Deportivo Cali,Estadio Deportivo Cali,3.521642,-76.417036
Merkaz Balata,Nablus Football Stadium,32.22496,35.25122
AFC Telford United,New Bucks Head,52.697272,-2.501336
CSM Avântul Reghin,Stadionul Municipal,46.78083333,24.71022222
MFK Snina,Zemplin Stadium,48.7428,21.9083
RC Celta B,Campo Municipal de Barreiro,42.22861,-8.68076
Club Bolívar,Estadio Libertador Simón Bolívar,-16.5125,-68.141111
Nafpaktiakos Asteras F.C.,Papacharalambeio National Stadium,38.3893,21.81488
FC Minsk,FC Minsk Stadium,53.86166667,27.57861111
FK Kozara Gradiška,Gradski stadion,45.142222222222,17.256388888889
Cape Town All Stars F.C.,Idas Valley Stadium,-33.920041466961,18.886595882283
Real Madrid CF,Santiago Bernabéu Stadium,40.45306,-3.68835
AC Sparta Prague,Letná Stadium,50.099716,14.416122
Asteras Tripoli F.C.,Theodoros Kolokotronis Stadium,37.502676,22.388678
Elgin City F.C.,Borough Briggs,57.6518,-3.32092
PFC Lokomotiv Plovdiv,Lokomotiv Stadium,42.133889,24.771667
Gainare Tottori,Tottori Bank Bird Stadium,35.458333,134.221667
Espírito Santo Sociedade Esportiva,Q9255419,-19.53888889,-40.63888889
Royal Antwerp F.C.,Stadion Broodstraat,51.2327,4.471575
FC Nouadhibou,Stade Municipal de Nouadhibou,20.9132,-17.0467
VfR Aalen,Ostalb Arena,48.840556,10.072222
AC Horsens,CASA Arena Horsens,55.87166667,9.85722222
SV Werder Bremen II,Weserstadion,53.066389,8.8375
Viborg FF,Evergi Viborg Arena,56.455897,9.402064
Real Ávila CF,Adolfo Suárez Stadium,40.646388888889,-4.7016666666667
Colchester United F.C.,Colchester Community Stadium,51.9234,0.897703
FC Slavoj Vyšehrad,Stadion FK Slavoj Vyšehrad,50.0598269,14.4254472
MC El Eulma,Stade Messaoud-Zougar,36.1443,5.72245
FC Baltika Kaliningrad,Baltika Stadium,54.717407,20.489826
Real Santander,Q113568814,6.9956983,-73.0498181
Manchester United F.C.,Old Trafford,53.463055555556,-2.2913888888889
FK Bregalnica Štip,Gradski stadion Štip,41.7428,22.1906
FK Mladost Lučani,Mladost Stadium,43.860013888889,20.132608333333
FC Tekstilshchik Ivanovo,Q4453874,57.0185,40.9503
Nassaji Mazandaran F.C.,Vatani Stadium,36.4662,52.8611
Hapoel Ra'anana A.F.C.,Karnei Oren Memorial Field,32.186536,34.872503
FCSB,National Arena,44.4372,26.1525
Real Unión,Stadium Gal,43.345556,-1.785833
WA Tlemcen,Stade Akid Lotfi,34.89,-1.32
Brigade Boys Club,Dasarath Rangasala Stadium,27.695052,85.314835
S.C. Covilhã,Complexo Desportivo da Covilhã,40.264889,-7.497869
BSG Chemie Leipzig,Alfred-Kunze-Sportpark,51.358056,12.307778
Delfino Pescara 1936,Stadio Adriatico,42.45527778,14.22944444
C.D. Suchitepéquez,Estadio Carlos Salazar Hijo,14.531667,-91.509167
Al-Quwa Al-Jawiya,Al Quwa Al Jawiya Stadium,33.344603,44.438984
Christchurch United,Queen Elizabeth II Park,-43.491389,172.705278
FK Zvijezda 09,Ugljevik City Stadium,44.690556,18.997778
FC Memmingen,Fußballarena Memmingen,47.9794,10.1661
SK Vard Haugesund,Haugesund Stadion,59.413068,5.279379
Znicz Pruszków,Q9341240,52.1691,20.813
Napier City Rovers,"Park Island, Napier",-39.5082,176.8569
Atlético de Cali,Estadio Olímpico Pascual Guerrero,3.429889,-76.541083
FK Leotar,Police City Stadium,42.708821,18.352743
Johor Darul Takzim F.C.,Tan Sri Dato Haji Hassan Yunos Stadium,1.497575,103.75137222222
OFK Petrovac,Stadion pod Malim Brdom,42.203591,18.945928
Henan Songshan Longmen F.C.,Zhengzhou Hanghai Stadium,34.7167,113.725
Zagłębie Lubin,Stadion Zagłębia Lubin,51.413333,16.1975
Enosis Neon Paralimni FC,Paralimni Stadium,35.030833,33.987222
Újpest FC,Ferenc Szusza Stadium,47.574892,19.08465
FC Tom Tomsk,Trud Stadium,56.47416667,84.95666667
Gyeongju Korea Hydro and Nuclear Power FC,Gyeongju Civic Stadium,35.859947,129.212235
Charleston Battery,Blackbaud Stadium,32.870888888889,-79.919766666667
S.S. San Giovanni,Campo sportivo di Borgo Maggiore,43.9351,12.4518
Polisportiva Nuovo Campobasso Calcio,Stadio Nuovo Romagnoli,41.57,14.630833
Kuwait SC,Al Kuwait Sports Club Stadium,29.3425,47.951944444444
Club Deportivo Huachipato,Estadio CAP,-36.755556,-73.107222
Amazulu FC Zimbabwe,Barbourfields Stadium,-20.130895,28.569624
Redditch United F.C.,The Valley,51.487489,0.035632
Orihuela CF,Estadio Municipal Los Arcos,38.08333333,-0.95
Stellenbosch F.C.,Danie Craven Stadium,-33.94,18.87361111
ATK Mohun Bagan FC,Vivekananda Yuba Bharati Krirangan,22.568889,88.409167
KF Laçi,Laçi Stadium,41.64248,19.711672
St. Patrick F.C.,Il-Foss,35.879166666667,14.529833333333
Oskarshamns AIK,Arena Oskarshamn,57.25611115,16.48166656
Associação Atlética Ponte Preta,Estádio Moisés Lucarelli,-22.913611,-47.051389
Dorogi FC,Buzánszky Jenő Stadion,47.7166,18.7333
Unión La Calera,Estadio Municipal Nicolás Chahuán,-32.784167,-71.199444
Sporting CP,Estádio José Alvalade,38.761194444444,-9.1607833333333
Kahramanmaraşspor,12 Şubat Stadium,37.5741,36.9234
FC Khimik Dzerzhinsk,Khimik Stadium,56.235667,43.458639
S.S.D. Licata 1931,Stadio Dino Liotta,37.1025,13.9431
Huelva,Estadio Nuevo Colombino,37.246389,-6.954167
Ternana Calcio,Stadio Libero Liberati,42.562222,12.635278
NK Olimpija Ljubljana,Stožice Stadium,46.081111,14.521389
AEK Larnaca F.C.,AEK Arena - Georgios Karapatakis,34.9263,33.597747222222
Shamrock Rovers F.C.,Tallaght Stadium,53.2835,-6.37374
Levante UD,Estadi Ciutat de València,39.494722,-0.364167
PFC Litex Lovech,Lovech Stadium,43.142639,24.724861
F.C. Famalicão,Estádio Municipal 22 de Junho,41.40127778,-8.52242222
Cesena F.C.,Stadio Dino Manuzzi,44.140556,12.261944
Kenkre F.C.,Cooperage Ground,18.924449,72.828734
Real Balompédica Linense,Estadio Municipal de La Línea de la Concepción,36.1585,-5.34025
UD Logroñés,Estadio Las Gaunas,42.453333,-2.453333
Atlético Clube Goianiense,Estádio Serra Dourada,-16.698889,-49.233889
KAC Marrakech,Stade de Marrakech,31.706667,-7.980556
NK Drava Ptuj,Ptuj City Stadium,46.416825,15.87558611
A.C. Ajaccio,Stade François Coty,41.930761111111,8.7764444444444
Luton Town F.C.,Kenilworth Road,51.884166666667,-0.43166666666667
Umeå FC,Umeå Energi Arena,63.83,20.285277777778
DSV Leoben,Donawitz Stadium,47.3768,15.0788
FK Haugesund,Haugesund Stadion,59.413068,5.279379
FK Crvena Stijena,Tološi Stadium,42.451057,19.225269
RCD Mallorca,Visit Mallorca Stadi,39.59,2.63
Damak,Prince Sultan bin Abdul Aziz Stadium,18.310556,42.598333
Utsiktens BK,Ruddalens IP,57.663888888889,11.909444444444
VfB Stuttgart II,Gazi-Stadion auf der Waldau,48.753944,9.188417
Eintracht Braunschweig,Eintracht-Stadion,52.29,10.521389
CD Eldense,Q26709118,38.467356,-0.796031
Burton Albion F.C.,Pirelli Stadium,52.821906,-1.626958
A.C.D. Treviso,Stadio Omobono Tenni,45.67,12.255833
Tollygunge Agragami,Rabindra Sarobar Stadium,22.51166667,88.35222222
Unión Española,Estadio Santa Laucha-Universidad SEK,-33.404553,-70.659017
NK Radomlje,Domžale Sports Park,46.136967,14.602343
Memphis 901 FC,AutoZone Park,35.143055555556,-90.049166666667
Ermis Aradippou FC,Ammochostos Stadium,34.929818,33.613207
Transport United,Changlimithang Stadium,27.471417,89.641056
Ayr United F.C.,Somerset Park,55.4696,-4.62
CD Baskonia,Artunduaga,43.232441942347,-2.8814551026464
Chainat Hornbill F.C.,Chainat Stadium,15.218954,100.155546
Egaleo F.C.,Stavros Mavrothalassitis Stadium,37.9872,23.6761
Rangers F.C.,Ibrox Stadium,55.853055555556,-4.3091666666667
Sandefjord Fotball,Sandefjord Arena,59.13725,10.17969
Aarhus Gymnastikforening,Ceres Park & Arena,56.131944,10.196389
FC Edmonton,Clarke Stadium,53.557222222222,-113.47805555556
Ayutthaya United F.C.,Ayutthaya Province Stadium,14.350236,100.59726
Ettifaq FC,Prince Mohamed bin Fahd Stadium,26.4272,50.1141
Jicaral Sercoba,Estadio Asociación Cívica Jicaraleña,9.9580555555556,-85.119444444444
Al-Fotuwa SC,Deir ez-Zor Municipal Stadium,35.324438,40.14634
Orsomarso S.C.,Estadio Francisco Rivera Escobar,3.52638889,-76.30638889
Dungannon Swifts F.C.,Stangmore Park,54.496307,-6.714135
FK Budućnost Banovići,Stadion FK Budućnost,44.4139,18.5352
Athletic Club,San Mamés Stadium,43.264205,-2.949369
Bristol Rovers F.C.,Memorial Stadium,51.4862,-2.58313
ASIL Lysi,GSZ Stadium,34.925556,33.599722
Ross County F.C.,Victoria Park,57.5959,-4.41891
Angoulême CFC,Stade Lebon,45.641894,0.176128
Girona FC,Montilivi Stadium,41.961389,2.828611
A.D. Sanjoanense,Estádio Conde Dias Garcia,40.898239,-8.499072
Everton de Viña del Mar,Estadio Sausalito,-33.014444444444,-71.535
Ceará Sporting Club,Estádio Presidente Vargas,-3.745833,-38.536667
Partick Thistle F.C.,Firhill Stadium,55.881556,-4.269639
Brøndby IF,Brøndby Stadium,55.648853,12.418358
Wydad Club athletic,Stade El Massira,32.3002,-9.22957
FC Thun,Stockhorn Arena,46.744817,7.606075
ES Zarzis,Abdessalem Kazouz sports complex,33.491667,11.110556
US Avranches,Stade René-Fenouillère,48.68075,-1.3589444444444
Melbourne Victory,Melbourne Rectangular Stadium,-37.825278,144.983889
FK Varnsdorf,Městský stadion v Kotlině,50.914902,14.618924
Sporting Kansas City,GEHA Field at Arrowhead Stadium,39.048888888889,-94.483888888889
Sacramento Republic FC,Heart Health Park,38.5911,-121.438
FC Slovan Liberec,Stadion u Nisy,50.776214,15.049972
A.C.R. Messina,Stadio San Filippo,38.161389,15.520833
Sannat Lions F.C.,Sannat Ground,36.03,14.240833333333
Degerfors IF,Stora Valla,59.2383,14.4431
Hetten FC,Q16123664,16.84,42.5964
FC Baník Ostrava,Bazaly,49.845111,18.299392
POFC Botev Vratsa,Hristo Botev Stadium,43.201111,23.5675
HNK Orašje,Gradski stadion,45.029278,18.687333
Maritzburg United F.C.,Harry Gwala Stadium,-29.617388,30.385641
Fukushima United FC,Toho Stadium,37.723333,140.361389
Prachuap F.C.,Prachuap Khiri Khan Province Stadium,11.817598,99.788093
FC Volendam,Kras Stadion,52.494444,5.066389
FK Budućnost Podgorica,Podgorica City Stadium,42.444728,19.264378
Club Atlético Tigre,Estadio José Dellagiovanna,-34.449333,-58.542219
Becamex Binh Duong F.C.,Go Dau Stadium,10.970043,106.672
Rivers United F.C.,Yakubu Gowon Stadium,4.825,7.02194
FC Akhmat Grozny,Akhmat-Arena,43.32317778,45.74525278
Sanna Khanh Hoa F.C.,Nha Trang Stadium,12.250427,109.192944
SK Slavia Prague B,Na Chvalech,50.109741,14.599274
F.K. Vojvodina,Karađorđe Stadium,45.246667,19.842222
Cape Town Spurs F.C.,Cape Town Stadium,-33.903461111111,18.411152777778
UD Lanzarote,Ciudad Deportiva de Lanzarote,28.966697,-13.554307
Waterford United F.C.,Waterford Regional Sports Centre,52.244722,-7.132778
Portland Timbers,Providence Park,45.521388888889,-122.69166666667
Coventry City F.C.,Ricoh Arena,52.448056,-1.495556
NK Zvijezda Gradačac,Banja Ilidža,44.886944,18.412778
Labasa F.C.,Subrail Park,-16.4275,179.374
GKS Katowice,Stadion GKS Katowice,50.279747,19.001203
Johor Darul Takzim II F.C.,Pasir Gudang Corporation Stadium,1.4619666666667,103.89810277778
FC Ural Yekaterinburg,Central Stadium Yekaterinburg,56.832480570619,60.573541375322
Pallo-Iirot,Äijänsuo stadium,61.1211,21.5033
Ängelholms FF,Ängelholms IP,56.234444,12.856389
Young Boys FD,Q12338317,56.1792,9.58798
U.S. Latina Calcio,Stadio Domenico Francioni,41.463611,12.898889
K.V.C. Westerlo,Het Kuipje,51.094722,4.928333
Hatta Club,Hamdan Bin Rashid Stadium,24.80452778,56.11261111
Puebla F.C.,Cuauhtémoc Stadium,19.078056,-98.164444
PFC Spartak Nalchik,Spartak Stadium,43.469537,43.590338
FK Bokelj,Stadion Pod Vrmcem,42.420295,18.764979
FC Atyrau,Munayshy Stadium,47.094085,51.908324
SpVgg Unterhaching,Generali Sportpark,48.073611,11.615556
NK Lokomotiva,Stadion Maksimir,45.818858333333,16.018077777778
Cobán Imperial,Estadio Verapaz,15.4762068,-90.3769094
Al Ahli Saudi FC,King Abdullah Sports City,21.762627,39.165096
Stade Gabèsien,Stade Municipal de Gabès,33.8658741,10.1056385
Escuela Municipal Deportivo Binacional,Estadio Monumental Virgen de Chapi,-16.40729,-71.520203
Nagoya Grampus,Mizuho Athletic Stadium,35.122721,136.944301
Nongbua Pitchaya F.C.,Nong Bua Lamphu Province Stadium,17.1299944,102.4237025
Philadelphia Union,Subaru Park,39.832222,-75.378889
Correcaminos UAT,Marte R. Gómez Stadium,23.73945,-99.15246667
Calcio Lecco 1912,Stadio Rigamonti-Ceppi,45.857831,9.398919
Real Jaén,La Victoria Stadium,37.775416666667,-3.7675
Ballyclare Comrades F.C.,Dixon Park,54.750694,-6.001942
TP Mazembe,Stade TP Mazembe,-11.678373,27.489241
Burgos CF,Estadio El Plantío,42.344167,-3.680556
Western United FC,Melbourne Rectangular Stadium,-37.825278,144.983889
FK Qarabagh,Karabakh Stadium,40.4212,49.9968
FK Arsenal Tivat,Stadion U Parku,42.432531,18.695344
FC Taraz,Taraz Central Stadium,42.901751,71.382224
Dunfermline Athletic F.C.,East End Park,56.075308,-3.441906
FC Atlético Cearense,Estádio Antônio Cruz,-3.818056,-38.449167
AS Yzeure,Stade de Bellevue,46.56139722,3.34905
SV Tasmania Berlin,Q1571306,52.4692,13.4167
Fredrikstad FK,Fredrikstad Stadion,59.213049,10.92732
Skövde AIK,Södermalms IP,58.3789,13.8406
Braintree Town F.C.,Cressing Road,51.875322,0.572956
Paju Citizen FC,Paju Stadium,37.756085,126.786476
Bayer 04 Leverkusen,BayArena,51.038255555556,7.0022055555556
Lillestrøm SK,Åråsen Stadion,59.962752,11.063458
Gretna F.C. 2008,Raydale Park,54.993214,-3.071919
Eastbourne Borough F.C.,Priory Lane,50.804181,0.320767
Gateshead F.C.,Gateshead International Stadium,54.961111111111,-1.5797222222222
KF Skënderbeu Korçë,Skënderbeu Stadium,40.625833,20.782778
FC Guria Lanchkhuti,Evgrapi Shevardnadze Stadium,42.094722,42.047778
Barakaldo CF,Estadio Nuevo Lasesarre,43.302778,-2.986389
C.D. Municipal Limeño,Estadio Jose Ramon Flores,13.632222,-87.890278
SC Eltersdorf,Sportanlage Langenau,49.5557,10.9947
FC Linköping City,Linköping Arena,58.418055555556,15.649166666667
B36 Tórshavn,Gundadalur,62.0193487,-6.7811394
Ayia Napa F.C.,Ayia Napa Municipal Stadium,34.993482,34.011626
Stomil Olsztyn,OSiR Stadium in Olsztyn,53.772778,20.508056
S.S.D. Pro Sesto Calcio,Stadio Breda,45.533889,9.219722
FC Elektrosila Leningrad,Petrovsky Stadium,59.951944,30.286389
Jeju United FC,Jeju World Cup Stadium,33.246212,126.509361
FC Volgar Astrakhan,Central Stadium,46.38194444,48.05083333
Al-Shahaniya Sports Club,Ahmad bin Ali Stadium,25.330538,51.341279
FC Biel-Bienne,Gurzelen Stadion,47.1453,7.26104
Alanyaspor,Alanya Oba Stadium,36.5626,32.0791
FK Radnik Surdulica,Surdulica City Stadium,42.6833,22.1666
NK Rudar Velenje,Ob Jezeru City Stadium,46.372931,15.104184
Boavista F.C.,Estádio do Bessa,41.162222222222,-8.6427777777778
Bnei Yehuda Tel Aviv F.C.,Bloomfield Stadium,32.05173,34.76148
Baghdad FC,Baghdad FC Stadium,33.314972222222,44.384472222222
"Villarreal CF ""B""",Ciudad Deportiva Villarreal CF,39.94046,-0.11501
Semen Padang FC,Haji Agus Salim Stadium,-0.929444,100.358333
Podosfairikos Omilos Xylotymvou 2006,Xylotymvou Community Stadium,35.007436,33.755069
Rampla Juniors Football Club,Estadio Olímpico,-34.893108,-56.245413
Union Sportive de Forbach Football,Schlossberg Stadium,49.1808,6.90409
FC Prishtina,Fadil Vokrri Stadium,42.66297,21.15688
NK Radnik Sesvete,Stadion ŠRC Sesvete,45.8364,16.1075
Solihull Moors F.C.,Damson Park,52.4389,-1.75724
Wolverhampton Wanderers F.C.,Molineux Stadium,52.590277777778,-2.1302777777778
FC Mondercange,"Stade Communal, Mondercange",49.536816666667,5.9829333333333
Zamalek SC,Cairo International Stadium,30.069111,31.312333
Carpi FC 1909,Stadio Alberto Braglia,44.653611,10.923333
SV Eintracht Trier 05,Moselstadion,49.768056,6.647778
CD Quesada,Estadio Municipal de Santo Domingo,40.338889,-3.840556
Sestao River Club,Las Llanas Municipal Stadium,43.3106,-3.00972
FC Differdange 03,Stade Municipal de la Ville de Differdange,49.513932,5.889775
Ħamrun Spartans F.C.,Victor Tedesco Stadium,35.8873,14.4925
Técnico Universitario,Estadio Bellavista,-1.244772,-78.623069
FC Zimbru Chișinău,Zimbru Stadium,46.980278,28.866944
Crewe Alexandra F.C.,Alexandra Stadium,53.087419,-2.435747
SD Compostela,Estadio Multiusos de San Lázaro,42.882767,-8.516014
UD Almería B,Estadio Municipal Juan Rojas,36.862,-2.44529
SC Telstar,BUKO Stadion,52.455,4.635
Club Real Potosí,Estadio Víctor Agustín Ugarte,-19.578611,-65.761111
SO Châtellerault,Stade de la Montée Rouge,46.808603,0.521242
FCI Levadia Tallinn,Kadriorg Stadium,59.434472222222,24.783444444444
Ansan Greeners FC,Ansan Wa Stadium,37.319314,126.818766
Incheon United FC,Incheon Football Stadium,37.466131,126.643035
Benevento Calcio,Stadio Ciro Vigorito,41.116389,14.781111
Ankaraspor,Osmanlı Stadyumu,40.0115,32.5024
S.S. Monopoli 1966,Stadio Vito Simone Veneziani,40.9571,17.2937
AC Oulu,Raatti Stadium,65.019694444444,25.465805555556
Club Sportivo Cerrito,Estadio Parque Maracaná,-34.836797,-56.171286
Valenciennes F.C.,Stade du Hainaut,50.348486,3.529336
Kavala F.C.,Anthi Karagianni Stadium,40.946944,24.436111
CS Știința Miroslava,Stadionul Comunal,47.16080556,27.48497222
Linfield F.C.,Windsor Park,54.5825,-5.955
Universidad Técnica de Cajamarca,Estadio Mansiche,-8.106655,-79.030977
FC Inter Turku,Veritas Stadion,60.442778,22.291667
Sanfrecce Hiroshima,Hiroshima Big Arch,34.440778,132.39425
CS Concordia Chiajna,Stadionul Concordia,44.462778,25.975278
Awassa City F.C.,Awassa Kenema Stadium,7.0419444444444,38.476388888889
Orlando Pirates F.C.,Orlando Stadium,-26.231894,27.922892
Sydney Olympic FC,Belmore Sports Ground,-33.916667,151.094722
Hapoel Haifa F.C.,Sammy Ofer Stadium,32.783111111111,34.965166666667
Hanoi FC,Hàng Đẫy Stadium,21.029722,105.833056
Club León,León Stadium,21.115544,-101.657744
Young Africans S.C.,Benjamin Mkapa National Stadium,-6.8535,39.273811
Nara United F.C.,Narathiwat Provincial Administrative Organization Stadium,6.425162,101.805964
FSC Mariupol,"Azovets Stadium, Mariupol",47.0983,37.6228
FC Chambly,Stade des Marais,49.177472222222,2.2323333333333
Haiphong Football Club,Lạch Tray Stadium,20.851779,106.688743
FC Progrès Niederkorn,Stade Jos Haupert,49.546111111111,5.9033694444444
Xghajra Tornados F.C.,Ta' Qali National Stadium,35.894863888889,14.415372222222
FC KAMAZ Naberezhnye Chelny,KAMAZ Stadium,55.73207778,52.41781944
AD Ceuta FC,Estadio Alfonso Murube,35.8854,-5.3279
Orange County SC,Championship Soccer Stadium,33.67446,-117.739335
Fatih Karagümrük S.K.,Vefa Stadium,41.0278,28.939
Rende Calcio 1968,Stadio Marco Lorenzon,39.333888888889,16.238611111111
Burnley F.C.,Turf Moor,53.789064,-2.230225
C.D. Atlético Marte,Estadio Cuscatlán,13.681089,-89.222358
ES Troyes AC,Stade de l'Aube,48.307561,4.098458
Santarcangelo Calcio,Stadio Valentino Mazzola,44.05836111,12.44988889
IF Elfsborg,Borås Arena,57.73457,12.934334
Fortuna Düsseldorf,Merkur Spielarena,51.261539,6.733083
KAC Kénitra,Stade Municipal,34.2527,-6.57155
Pordenone Calcio,Stadio G. Teghil,45.675319,13.09953
Sur SC,Sur Sports Complex,22.5277,59.4735
MSV Duisburg,Schauinsland-Reisen-Arena,51.409028,6.778639
Giravanz Kitakyushu,Mikuni World Stadium Kitakyūshū,33.891444,130.888861
FC Voluntari,Stadionul Anghel Iordănescu,44.49916667,26.14555556
Lanciano Calcio 1920,Stadio Guido Biondi,42.219722,14.382222
SC Westfalia Herne,Stadion am Schloss Strünkede,51.551944,7.208611
Al-Riyadh SC,Prince Turki bin Abdul Aziz Stadium,24.647414,46.550372
MFK Zemplín Michalovce,Zemplin Stadium,48.7428,21.9083
Gamba Osaka,Suita Stadium,34.802526,135.538278
EB/Streymur,Við Margáir,62.1941,-7.0431
Nuneaton Borough F.C.,Liberty Way,52.5207,-1.44253
FC Bayern Munich,Allianz Arena,48.218775,11.624752777778
Nadroga F.C.,Lawaqa Park,-18.1425,177.50194444
Alianza Fútbol Club,Santa Ana Department,14.09,-89.511
Boston United F.C.,York Street,52.976786,-0.019117
Prestatyn Town F.C.,Bastion Road,53.3405,-3.4079
Hønefoss BK,AKA Arena,60.159119,10.265368
Deportivo Recoleta,Estadio Roque F. Batelhana,-25.295103,-57.588881
FC Ordino,Estadi Comunal d'Aixovall,42.476389,1.487667
UE Tàrrega,Municipal Joan Capdevila,41.644104,1.14581
New York City FC,Yankee Stadium,40.829569,-73.926392
SuperSport United F.C.,Lucas Masterpieces Moripe Stadium,-25.775919,28.072869
Forfar Athletic F.C.,Station Park,56.6522,-2.885
Glenavon F.C.,Mourneview Park,54.453889,-6.336389
RB Leipzig,Zentralstadion,51.345833,12.348056
FK Riteriai,LFF Stadium,54.668611,25.294444
Al-Qaisumah FC,Al-Qaisumah Club Stadium,28.309642,46.142842
Maghreb Association Sportive de Fès,Fez Stadium,34.00283,-4.968851
Gernika Club,Estadio Urbieta,43.323194444444,-2.6750833333333
S.S. Arezzo,Stadio Città di Arezzo,43.451111,11.894444
Club Universitario de Deportes,Estadio Monumental U,-12.055694,-76.935972
CD Tondela,Estádio João Cardoso,40.512,-8.08282
VfR Mannheim,Rhein-Neckar-Stadion,49.4792,8.49944
Royal Thai Navy F.C.,Sattahip Navy Stadium,12.663963,100.935586
Inter Milan,Stadio Giuseppe Meazza,45.478055,9.123947
Kaizer Chiefs F.C.,Soccer City Stadium,-26.234806,27.982378
Feralpisalò,Stadio Lino Turina,45.60394444,10.51308333
Western Sydney Wanderers FC,Sydney Showground Stadium,-33.843056,151.067778
"Club Social, Cultural y Deportivo Grecia",Q5848099,-0.697633,-80.091
Future FC,30 June Stadium,30.0199,31.3737
GNK Dinamo Zagreb,Stadion Maksimir,45.818858333333,16.018077777778
Septemvri Sofia PFC,Septemvri Stadium (Sofia),42.69222222,23.28777778
FC Mariupol,Illichivets Stadium,47.143722,37.558333
Deportes Valdivia,Q5847963,-39.83179,-73.214864
Sutton United F.C.,Gander Green Lane,51.3675,-0.20444444444444
Falkenbergs FF,Falcon Alkoholfri Arena,56.893972222222,12.511555555556
S.S. Chieti Calcio,Stadio Guido Angelini,42.343611,14.136389
FK Radnički 1923,Čika Dača Stadium,44.020872,20.899194
C.S. Cartaginés,Estadio José Rafael Fello Meza Ivankovich,9.858472,-83.918713
FC 08 Homburg,Waldstadion Homburg,49.3161,7.355
Tarxien Rainbows F.C.,Ta' Qali National Stadium,35.894863888889,14.415372222222
Gżira United F.C.,Ta' Qali National Stadium,35.894863888889,14.415372222222
Racing de Casablanca,Stade Pere Jego,33.5574,-7.65149
Moss FK,Melløs Stadion,59.42083333,10.67138889
Manchester City F.C. Reserves and Academy,Academy Stadium,53.4812,-2.1928
ZFC Meuselwitz,Q885979,51.0536,12.2831
FK Panevėžys,Aukštaitija Stadium,55.739167,24.359444
Besa Kavajë,Besa Stadium,41.188558,19.553247
Busan IPark FC,Busan Asiad Main Stadium,35.190103,129.058361
A.S. Gubbio 1910,Stadio Pietro Barbetti,43.35,12.566667
Hokkaido Consadole Sapporo,Sapporo Dome,43.015172,141.409767
Nasaf Qarshi,Markaziy Stadium,38.83823,65.81354
Peterhead F.C.,Balmoor Stadium,57.5117,-1.79585
Krabi F.C.,Krabi Provincial Stadium,8.108434,98.916629
Dhofar S.C.S.C.,Al-Saada Stadium,17.082711,54.143789
Exeter City F.C.,St James Park,50.730713888889,-3.52115
Clube Atlético Mineiro,Estádio Independência,-19.908333,-43.917778
PSCS Cilacap,Wijayakusuma Stadium,-7.69527778,109.03416667
Loudoun United FC,Audi Field,38.868504,-77.012935
Wisła Płock,Kazimierz Górski Stadium,52.562004,19.684067
Shandong Taishan F.C.,Jinan Olympic Sports Center Stadium,36.656646,117.110052
A.E.K. Athens F.C.,Olympic Stadium of Athens,38.036111111111,23.7875
Limón Black Star,Estadio Juan Gobán,9.9911111111111,-83.033055555556
FK Sloga Kraljevo,Kraljevo City Stadium,43.7297,20.6942
Córdoba CF B,Estadio Nuevo Arcángel,37.872294,-4.764642
Brisbane Roar FC,Lang Park,-27.464722222222,153.00944444444
FC Midtjylland,MCH Arena,56.11666667,8.95166667
FK Radnik Bijeljina,Bijeljina City Stadium,44.75444444,19.225
Safa SC,Safa Stadium,33.874722222222,35.491944444444
Excelsior Rotterdam,Stadion Woudestein,51.916944,4.520556
A.C. Cuneo 1905 Olmo,Stadio Fratelli Paschiero,44.38313889,7.53397222
Grenoble Foot 38,Stade des Alpes,45.187428,5.740099
Jammerbugt FC,Jetsmark Idrætscenter,57.2073,9.6732
PFC Spartak Varna,Spartak Stadium,43.218611,27.9125
Aberystwyth Town F.C.,Park Avenue,52.4104,-4.08074
F91 Dudelange,Stade Jos Nosbaum,49.472222222222,6.0847222222222
Karmiotissa Pano Polemidion,Ammochostos Stadium,34.929818,33.613207
FC Lahti,Lahti Stadium,60.983056,25.634167
NK Široki Brijeg,Stadion Pecara,43.3787,17.598
NK Šmartno 1928,Šmartno Stadium,46.3303,15.0364
Knattspyrnufélagið Víkingur,Víkingsvöllur,64.117222,-21.852778
KF Oriku,Petro Ruci Stadium,40.102944444444,19.740472222222
Salamanca CF UDS,Estadio El Helmántico,40.995278,-5.665
Mérida AD,Estadio Romano,38.913933,-6.336406
Heracles Almelo,Erve Asito,52.338611,6.649722
Markaz Shabab Al-Am'ari,Faisal Al-Husseini International Stadium,31.8475,35.230278
CP Villarrobledo,Q1031429,39.271666666667,-2.6044444444444
FC Dinamo Batumi,Chele Arena,41.812981,41.774458
FC Fakel Voronezh,Tsentralnyi Profsoyuz Stadion,51.672778,39.204167
Jagiellonia Białystok,Białystok City Stadium,53.105556,23.148889
BFC Preussen,Preussen-Stadion an der Malteserstraße,52.4326,13.3548
Ferenc Puskás Football Academy,Pancho Arena,47.464,18.5868
CA Batna,Stade Seffouhi,35.5578,6.18022
Colorado Springs Switchbacks FC,Switchbacks Training Stadium,38.8958,-104.711
TSV Hartberg,Stadion Hartberg,47.281,15.9772
Al-Zawra'a SC,Al-Zawraa Stadium,33.344244,44.368173
Deportivo Toluca F.C.,Nemesio Díez Stadium,19.287286,-99.666794
FC Dordrecht,GN Bouw Stadion,51.8025,4.69
Kocaelispor,Kocaeli Stadium,40.774722222222,30.0175
CF Badalona,Camp del Centenari,41.457121,2.251135
FC Smorgon,Yunost Stadium,54.479,26.4044
Asociación Deportiva Tarma,Union Tarma Stadium,-11.413866,-75.683442
Central Español,Parque Palermo,-34.897864,-56.153556
C.D. Feirense,Estádio Marcolino de Castro,40.926689,-8.545814
São Paulo FC,Estádio do Morumbi,-23.600125,-46.720155555556
Åtvidabergs FF,Kopparvallen,58.194583333333,15.995833333333
S.S. Teramo Calcio,Stadio Gaetano Bonolis,42.682527777778,13.762583333333
KF Besa,Shahin Haxhiislami Stadium,42.65277778,20.29388889
Al-Arabi SC,Sabah Al Salem Stadium,29.356944444444,48.000277777778
Preston North End F.C.,Deepdale,53.772222222222,-2.6880555555556
SK Slavia Prague,Fortuna Arena,50.066944,14.471389
SD Eibar,Ipurúa Municipal Stadium,43.181706,-2.475803
Deportivo Maipú,Q5848296,-32.9837,-68.79277778
Lamontville Golden Arrows F.C.,King Zwelithini Stadium,-29.971389,30.9
Leeds United F.C.,Elland Road,53.777777777778,-1.5722222222222
Mantova FC,Stadio Danilo Martelli,45.146111,10.794167
K.R.C. Genk,Cegeka Arena,51.005,5.533333
Saipa F.C.,Enghelab Stadium,35.850556,50.958333
FK Slavija,City Stadium SRC Slavija,43.82937,18.36715
Warta Poznań,Stadion Miejski,52.397222,16.858056
FK Voždovac,Voždovac Stadium,44.7749,20.4902
Europa Point F.C.,Victoria Stadium,36.149356,-5.350342
Vonds Ichihara,Ichihara Seaside Stadium,35.527974,140.071639
BSV Schwarz-Weiß Rehden,Q2312784,52.6163,8.48314
Zamora CF,Estadio Ruta de la Plata,41.486389,-5.748056
Sportivo Carapeguá,Q5847952,-25.7609333,-57.235052
Dundalk F.C.,Oriel Park,53.998944,-6.416917
Giresunspor,Giresun Atatürk Stadium,40.90972222,38.37194444
Barry Town F.C.,Jenner Park Stadium,51.410833,-3.265278
FC Dila Gori,Tengiz Burjanadze Stadium,41.983019,44.103828
FC Rouen,Stade Robert Diochon,49.411078,1.070738
Figueirense Futebol Clube,Estádio Orlando Scarpelli,-27.585556,-48.586667
WSG Tirol,Tivoli Stadion Tirol,47.255972,11.410789
Vancouver Whitecaps FC,BC Place,49.276666666667,-123.11194444444
Dorados de Sinaloa,Estadio Carlos González,24.830556,-107.404167
Kolding IF,Kolding Stadion,55.494167,9.459167
Stuttgarter Kickers,Gazi-Stadion auf der Waldau,48.753944,9.188417
USM Annaba,"May 19, 1956 Stadium",36.885833,7.733056
Chicago Fire FC,Soldier Field,41.8625,-87.616666666667
R.S.C. Anderlecht,Lotto Park,50.834167,4.298333
CSM Unirea Alba Iulia,Stadionul Cetate,46.079078,23.566553
Vendsyssel FF,Hjørring Stadium,57.4577062,9.9984598
Huddersfield Town A.F.C.,Kirklees Stadium,53.654166666667,-1.7683333333333
Kampala City Council FC,Lugogo Stadium,0.32585278,32.60457222
AFC Ajax,Johan Cruyff Arena,52.314166666667,4.9419444444444
Atlante F.C.,Azul Stadium,19.383389,-99.178225
Elche CF,Estadio Manuel Martínez Valero,38.266944,-0.663333
Jerez Industrial C. F.,Campo de la Juventud,36.6728,-6.13889
SG Wattenscheid 09,Lohrheidestadion,51.485556,7.118611
RoundGlass Punjab FC,Guru Nanak Stadium,30.910961,75.845082
SCC Mohammédia,"Stade El Bachir, Mohammédia",33.6954,-7.39919
UE Figueres,Municipal de Vilatenim,42.269942,2.999439
UE Extremenya,Estadi Comunal d'Aixovall,42.476389,1.487667
KÍ Klaksvík,Djúpumýra Stadium,62.225246,-6.579201
S.S.D. Massese,Stadio degli Oliveti,44.030833,10.116667
BK Häcken,Rambergsvallen,57.718888888889,11.930833333333
Montedio Yamagata,ND Soft Stadium Yamagata,38.336558,140.378558
Moghreb Atlethic Tétouan,Saniat Rmel,35.5725,-5.348611
Quartz S.C.,EMS Stadium,11.256405,75.785708
Gokulam Kerala FC,EMS Stadium,11.256405,75.785708
Weymouth F.C.,Bob Lucas Stadium,50.619906,-2.485203
Rangers de Talca,Estadio Fiscal de Talca,-35.419722,-71.673889
Unione Sportiva Sassuolo Calcio,Mapei Stadium – Città del Tricolore,44.714722,10.649722
FC Machida Zelvia,Machida Athletic Stadium,35.5925,139.438889
Entente SSG,Parc des Sports Michel Hidalgo,48.974678,2.275528
Chippa United F.C.,Athlone Stadium,-33.961944,18.516667
FC Zorya Luhansk,Avanhard Stadium,48.559444,39.321111
Kuopion Palloseura,Kuopio Football Stadium,62.884444,27.670833
Aerostar Bacău,Stadionul Aerostar,46.529594,26.912234
Pittsburgh Riverhounds SC,Highmark Stadium,40.436111,-80.009444
Atlético Grau,Estadio Miguel Grau,-5.192174,-80.616797
Club Tijuana,Caliente Stadium,32.506067,-116.993092
Senglea Athletic F.C.,Ta' Qali National Stadium,35.894863888889,14.415372222222
Caernarfon Town F.C.,The Oval,53.134722,-4.2675
Club Social y Deportivo Colo Colo,Estadio Monumental,-33.506611,-70.605944
Taranto Sport,Stadio Erasmo Iacovone,40.452778,17.27
Hapoel Hadera F.C.,Netanya Stadium,32.294397,34.864433
Nawair SC,Hama Municipal Stadium,35.560556,35.744722
Indy Eleven,IU Michael A. Carroll Track & Soccer Stadium,39.7711,-86.1779
C.D. Luis Ángel Firpo,Sergio Torres Stadium,13.349722,-88.437778
Ilves-Kissat,Tampere Stadium,61.4925,23.764167
Dalian Professional F.C.,Dalian Sports Center,39.02,121.564
Club Deportivo Universitario,Estadio Virgilio Tejeira,8.493056,-80.339444
Yverdon-Sport FC,Stade Municipal,46.783297,6.647056
Albion Rovers F.C.,"Meadow Park, Coatbridge",55.8518,-4.0142
Red Bull Bragantino,Estádio Nabi Abi Chedid,-22.965414,-46.536936
Tadamon Sour SC,Sour Stadium,33.274816666667,35.2116
SC Paderborn 07,Benteler-Arena,51.731389,8.710833
ZED FC,Cairo International Stadium,30.069111,31.312333
Arenas Club de Getxo,Campo Municipal de Gobela,43.33146944,-3.00646667
Albion F.C.,Estadio Gran Parque Central,-34.8845,-56.159
Wellington Olympic AFC,Newtown Park,-41.320278,174.7825
Nîmes Olympique,Stade des Costières,43.815972,4.359278
Helsingin Jalkapalloklubi,Bolt Arena,60.1875,24.9225
Sheffield Wednesday F.C.,Hillsborough Stadium,53.411388888889,-1.5005555555556
Accra Lions F.C.,Accra Sports Stadium,5.5513888888889,-0.19194444444444
Goa ISL team,Fatorda Stadium,15.28972222,73.9625
Tianjin Jinmen Tiger F.C.,TEDA Football Stadium,39.030519,117.719
TSV 1860 Rosenheim,Q1553794,47.8479,12.1293
Machine Sazi F.C.,Takhti Stadium (Tabriz),38.067403,46.301515
Kotkan Työväen Palloilijat,Arto Tolsa Areena,60.4575,26.939722
Pierikos F.C.,Katerini Stadium,40.261388888889,22.511944444444
Olympiacos F.C.,Karaiskakis Stadium,37.946169,23.664536
Fortuna Sittard,Fortuna Sittard Stadion,50.991944,5.843611
Varzim S.C.,Estádio do Varzim Sport Club,41.38783611,-8.772575
OGC Nice,Allianz Riviera,43.705138888889,7.1925833333333
Clermont Foot 63,Stade Gabriel Montpied,45.815805,3.12168
FK Liepāja,Daugava Stadium,56.502952,20.995424
FK Dukla Prague,Stadion Juliska,50.111389,14.3875
ReinMeer Aomori,New Aomori Prefecture General Sports Park,40.843349,140.839969
FC Bayern Munich II,Grünwalder Stadion,48.110833,11.574444
C.A. Rentistas,Estadio Complejo Rentistas,-34.776394,-56.165854
Paniliakos F.C.,Pyrgos Stadium,37.6791,21.4282
Bristol City F.C.,Ashton Gate Stadium,51.44,-2.620278
Asker Fotball,Føyka Stadion,59.834889,10.427929
FC Dinamo Tbilisi,Dinamo Arena,41.723,44.78975
Sorrento Calcio,Stadio Italia,40.629575,14.383758
Leones F.C.,Estadio Alberto Grisales,6.1466776,-75.3727535
Audax Italiano,Estadio Bicentenario de La Florida,-33.540833,-70.578333
RSD Alcalá,Q3330797,40.483,-3.34722
FSV Zwickau,Stadion Zwickau,50.728539,12.519325
FC Unirea Dej,Stadionul Unirea,44.30861111,26.18388889
NAC Breda,Rat Verlegh Stadion,51.595556,4.750278
Minnesota United FC,Allianz Field,44.9528,-93.1651
Accrington Stanley F.C.,Crown Ground,53.765356,-2.370911
FC Admira Wacker Mödling,BSFZ-Arena,48.0976,16.3109
FCM Traiskirchen,BSFZ-Arena,48.0976,16.3109
S.S.D. Casarano Calcio,Stadio Giuseppe Capozza,40.0146,18.1555
FC Aktobe,Aktobe Central Stadium,50.291389,57.160278
S.L. Benfica,Estádio da Luz,38.752677777778,-9.1846805555556
CD Barco,Q111710670,42.415897701836,-6.996376770809
Rio Grande Valley FC Toros,RGVFC Stadium,26.2826,-98.1352
Thespakusatsu Gunma,Shoda Shoyu Stadium Gunma,36.411613,139.053258
FK Banga Gargždai,Gargždai Stadium,55.715278,21.404444
Gaborone United S.C.,Botswana National Stadium,-24.6568,25.932892
AFC Eskilstuna,Tunavallen,59.370667,16.495
Coritiba F.C.,Estádio Couto Pereira,-25.421111,-49.2595
East Fife F.C.,Bayview Stadium,56.1887,-2.99902
FC Torpedo Armavir,Yunost Stadium,44.995944444444,41.116527777778
CSM Reșița,Stadionul Mircea Chivu,45.2817,21.8897
ADO Den Haag,Cars Jeans Stadion,52.062778,4.383056
Stoke City F.C.,Britannia Stadium,52.988333333333,-2.1755555555556
Xerez CD B,Estadio Municipal de Bosco,36.689167,-6.120278
FC Santa Coloma,Estadi Comunal d'Aixovall,42.476389,1.487667
Rockdale Ilinden FC,Bicentennial Park South,-33.963889,151.144444
Sarpsborg 08 FF,Sarpsborg Stadion,59.286217,11.097608
Atlético de San Luis,Estadio Alfonso Lastras,22.138706,-100.950864
Sepahan F.C.,Naghsh-e-Jahan Stadium,32.743267,51.686203
Samut Prakan City F.C.,M Power Stadium,13.579414,100.794345
FK Žalgiris Vilnius,LFF Stadium,54.668611,25.294444
KKS 1925 Kalisz,Q56338441,51.761917,18.100306
Akhisar Belediyespor,Akhisar Stadium,38.9209,27.8118
FC Gifu,Gifu Nagaragawa Stadium,35.441337,136.766052
Gimhae City Government FC,Gimhae Stadium,35.255573,128.877118
MKE Ankaragücü,Ankara 19 Mayıs Stadium,39.940094,32.845681
Persela Lamongan,Surajaya Stadium,-7.11342,112.429
Bolton Wanderers F.C.,Reebok Stadium,53.580555555556,-2.5355555555556
Konyaspor,Konya Atatürk Stadium,37.865389,32.483278
Kalmar FF,Guldfågeln Arena,56.69070278,16.31523333
Olympique Alès,Stade Pierre Pibarot,44.11888889,4.09
Skála ÍF,Skála Stadium,62.16,-6.78861111
Cavese 1919,Stadio Simonetta Lamberti,40.709722,14.7025
Nashville SC,Geodis Park,36.1309612,-86.7676932
Novara Calcio,Stadio Silvio Piola (Novara),45.435833,8.595833
Atalanta Primavera,Stadio Atleti Azzurri d'Italia,45.708889,9.680833
Sportivo Luqueño,Estadio Feliciano Cáceres,-25.272222,-57.493056
Libertad F.C.,"Estadio Jorge ""Mágico"" González",13.698305555556,-89.215388888889
SV Lippstadt 08,Q2326041,51.6797,8.32556
Lions Gibraltar F.C.,Victoria Stadium,36.149356,-5.350342
FC Tyumen,Geolog Stadium,57.1617,65.5139
Orlando City SC,Exploria Stadium,28.5410645,-81.389035
FC Tiraspol,Sheriff Stadium,46.838333,29.5575
Juventus F.C.,Allianz Stadium,45.109594,7.641247
Buriram United F.C.,Chang Arena,14.966667,103.096111
Quilmes Atlético Club,Estadio Centenario Ciudad de Quilmes,-34.741778,-58.251889
Gap Connah's Quay F.C.,Deeside Stadium,53.225338,-3.076504
S.V. Zulte Waregem,Regenboogstadion,50.883056,3.428889
Knattspyrnufélagið Fram,Laugardalsvöllur,64.143555555556,-21.878972222222
FK Metalac Gornji Milanovac,Metalac Stadium,44.03333333,20.45
UD Melilla,Estadio Municipal Álvarez Claro,35.285,-2.949444
Akademija Pandev,Stadion Mladost,41.4462,22.637708
HNK Segesta,Gradski stadion,45.478369,16.377332
FC Krylia Sovetov Samara,Metallurg Stadium,53.238333,50.271667
Sisaket United F.C.,Sri Nakhon Lamduan Stadium,15.101036,104.340581
Hong Kong Pegasus FC,Hong Kong Stadium,22.272861111111,114.18844444444
KFC Uerdingen 05,Grotenburg-Stadion,51.339167,6.603611
Accra Hearts of Oak SC,Accra Sports Stadium,5.5513888888889,-0.19194444444444
Comunicaciones FC,Estadio Cementos Progreso,14.676078,-90.488547
FK Cetinje,Stadion Obilića Poljana,42.3926,18.9244
Persiraja Banda Aceh,Harapan Bangsa Stadium,5.5225,95.323611
Institute F.C.,YMCA Grounds,54.976122,-7.278392
Club Deportivo Árabe Unido,Estadio Armando Dely Valdés,9.344049,-79.89584
S.S. Lazio,Stadio Olimpico,41.933872,12.454714
OFK Igalo,Stadion Solila,42.8433,19.8663
FK Ústí nad Labem,Městský stadion,50.675745,14.016387
Stenhousemuir F.C.,Ochilview Park,56.02824444,-3.81465833
Wrexham A.F.C.,Racecourse Ground,53.051944,-3.003611
FC Vaajakoski,Vaajakosken liikuntapuisto,62.24942,25.87
CF Gavà,Estadi Municipal la Bòbila,41.304516666667,1.9969916666667
Ruch Chorzów,Stadion Ruchu,50.282203,18.944178
ASM Oran,Stade Habib Bouakeul,35.679167,-0.675278
Club Atlético Osasuna,El Sadar Stadium,42.796667,-1.636944
Millwall F.C.,The Den,51.485833,-0.050833
Metallurg Bekabad,Metallurg Bekabad Stadium,40.213367,69.27919
Envigado Fútbol Club,Estadio Polideportivo Sur,6.164108,-75.59967
Charlton Athletic F.C.,The Valley,51.487489,0.035632
FC Solothurn,Stadion FC Solothurn,47.2065,7.521528
Central & Western District R&SA,Happy Valley Racecourse,22.2728,114.182
Tafea F.C.,Korman Stadium,-17.7339,168.337
NK Triglav Kranj,Stanko Mlakar Stadium,46.251731,14.364914
Bromley F.C.,Hayes Lane,51.39010278,0.02108333
FC Seoul,Seoul World Cup Stadium,37.568222222222,126.89736111111
Ajman Club,Ajman Stadium,25.392215,55.450546
Gillingham F.C.,Priestfield Stadium,51.38425,0.560753
DFK Dainava,Alytus Stadium,54.39194444,24.05472222
Sirens F.C.,Sirens Stadium,35.9453,14.4148
Hidd SCC,Bahrain National Stadium,26.153594,50.543664
Atlanta United FC,Mercedes-Benz Stadium,33.755277777778,-84.400833333333
Austin FC,Q2 Stadium,30.388206,-97.719837
Türkiyemspor Berlin,Friedrich-Ludwig-Jahn-Sportpark,52.543056,13.405278
Valencia CF,Mestalla Stadium,39.474722,-0.358333
Sydney FC,Jubilee Oval,-33.971944,151.129167
Viktoria Aschaffenburg,Stadion am Schönbusch,49.9703,9.12991
CSM Râmnicu Vâlcea,Stadionul Municipal,45.103056,24.352222
Śląsk Wrocław,Stadion Miejski,51.141797,16.944094
Ljungskile SK,Markbygg Arena,58.21666667,11.94388889
Navbahor Namangan,Markaziy Stadium,40.999618,71.593834
West Allotment Celtic F.C.,Druid Park,55.029,-1.703
Shirak FC,Gyumri City Stadium,40.785833,43.833333
Clyde F.C.,Shawfield Stadium,55.83833333,-4.22888889
KS Kastrioti,Kastrioti Stadium,41.51211111,19.78672778
FK Pobeda,Stadion Goce Delčev,41.343611,21.561944
Longford Town F.C.,Flancare Park,53.72416667,-7.85361111
Najaf FC,An-Najaf Stadium,32.01222,44.3275
Boca Juniors de Cali,Estadio Olímpico Pascual Guerrero,3.429889,-76.541083
Club Deportivo Plaza Amador,Estadio Rommel Fernández,9.035833,-79.469444
Chiangrai City F.C.,United Stadium of Chiangrai,19.956944,99.874722
Miramar Misiones,Parque Luis Méndez Piana,-34.896869,-56.153317
AS Poissy,Léo-Lagrange stadium,48.9364,2.0597
A.S.D. Barletta 1922,Q2326012,41.3125,16.28388889
El Gouna FC,El Gouna Stadium,27.36,33.66
Kashima Antlers,Kashima Soccer Stadium,35.991744,140.640525
Farsley Celtic F.C.,The Citadel,53.809711,-1.664214
Aldershot Town F.C.,Recreation Ground,51.248386,-0.754789
Adanaspor,Adana 5 Ocak Stadium,36.999,35.3297
FBC Aurora,Estadio Mariano Melgar,-16.408803,-71.535024
Guangzhou City F.C.,Yuexiushan Stadium,23.139216,113.260739
HNK Rijeka,Stadion Kantrida,45.339202,14.380959
Albacete Balompié,Estadio Carlos Belmonte,38.981117,-1.852142
UP Langreo,Estadio Ganzábal,43.30197222,-5.68984167
Havnar Bóltfelag,Gundadalur,62.0193487,-6.7811394
Tranmere Rovers F.C.,Prenton Park,53.373722,-3.0325
S.S. Sambenedettese Calcio,Stadio Riviera delle Palme,42.930556,13.884722
G.D. Chaves,Estádio Municipal de Chaves,41.75064,-7.464985
FC Liefering,Red Bull Arena,47.81625,12.998222222222
Shelbourne F.C.,Tolka Park,53.367514,-6.251983
ENAD Polis Chrysochous FC,Polis Chrysochous Municipal Stadium,35.038044,32.432468
OFK Kikinda,City Stadium Kikinda,45.8382,20.4565
Sumgayit PFC,Mehdi Huseynzade Stadium,40.601389,49.674722
SV Werder Bremen,Weserstadion,53.066389,8.8375
Ba F.C.,Govind Park,-17.53484444,177.66956667
SC Schwarz-Weiß Bregenz,Casino Stadium,47.5034,9.73478
Rimini F.C.,Stadio Romeo Neri,44.053056,12.577222
Kazincbarcikai SC,Pete András Stadion,48.243889,20.610278
Club Deportivo Ñublense,Estadio Municipal Nelson Oyarzún Arenas,-36.618056,-72.1075
C.A. Progreso,Parque Abraham Paladino,-34.873333,-56.234444
FSV Frankfurt,Stadion am Bornheimer Hang,50.128056,8.723333
Club Olimpia,Estadio Tigo Manuel Ferreira,-25.291389,-57.608611
Atlético Malagueño,Ciudad Deportiva de El Viso,36.71583333,-4.48444444
Ferencvárosi TC,Groupama Arena,47.475277777778,19.096111111111
Kirivong Sok Sen Chey F.C.,Olympic Stadium,11.558361,104.912083
Metropolitanos FC,Brígido Iriarte Stadium,10.482778,-66.941667
CF Montréal,Saputo Stadium,45.563055555556,-73.5525
FC Avangard Kursk,Trudovye Rezervy Stadium,51.7404,36.1916
A.C. Perugia Calcio,Stadio Renato Curi,43.106111,12.357222
Cheltenham Town F.C.,Whaddon Road,51.906158,-2.060211
Simba S.C.,Benjamin Mkapa National Stadium,-6.8535,39.273811
SC Freiburg,Dreisamstadion,47.988889,7.893056
CSM Lugoj,Stadionul Tineretului,45.67435556,21.910725
Tacuary Football Club,Estadio Toribio Vargas,-25.283245,-57.606198
Al-Wakrah Sports Club,Al Janoub Stadium,25.159777777778,51.574083333333
Sheikh Russel KC,Bangabandhu National Stadium,23.72801,90.41353
IK Brage,Domnarvsvallen,60.495,15.434166666667
NK Rudeš,Stadion Kranjčevićeva,45.804722,15.960833
Al-Karamah SC,Homs Municipal Stadium,34.729861,36.697917
FC Vysočina Jihlava,Stadion v Jiráskově ulici,49.402,15.5735
Club Always Ready,Estadio Hernando Siles,-16.499444,-68.122778
Verdes FC,Norman Broaster Stadium,17.160277777778,-89.069722222222
Gefle IF,Strömvallen,60.673055555556,17.1275
Gimnástica de Torrelavega,Estadio El Malecón,43.3506,-4.06389
Club Deportes Antofagasta,Estadio Regional de Antofagasta,-23.67013889,-70.40458333
C.D. Guadalajara Reserves and Academy,Jalisco Stadium,20.705,-103.328139
F.C. Vitosha Bistritsa,Bistritsa Stadium,42.59125,23.36341667
Club Celaya,Monumental Stadium football Miguel Aleman Valdes,20.535,-100.818333
Roasso Kumamoto,Kumamoto Athletics Stadium,32.836944,130.8
Odra Wodzisław,MOSiR Stadium,49.99833333,18.45694444
Al-Fujairah FC,Fujairah Club Stadium,25.130122222222,56.343480555556
Alianza Huánuco,Estadio Heraclio Tapia,-9.940567,-76.252778
Paris FC,Stade Charléty,48.818611,2.346667
St Albans City F.C.,"Clarence Park, St Albans",51.753,-0.324
NK Izola,Izola City Stadium,45.5371,13.6653
LKS Nieciecza,Stadion Bruk-Bet Termaliki,50.1584,20.8492
Real Estelí F.C.,Estadio Independencia,13.097778,-86.353056
Manhattan SC,Gaelic Park,40.8875,-73.901389
Asociación Deportivo Pasto,Estadio Departamental Libertad,1.198011,-77.277608
Akademisk Boldklub,Gladsaxe Stadium,55.7328,12.4968
PSBS Biak Numfor,Cendrawasih Stadium,-1.178731,136.086986
Ebusua Dwarfs,Cape Coast Sports Stadium,5.111389,-1.257778
Barnsley F.C.,Oakwell,53.552222,-1.4675
Bonnyrigg White Eagles FC,Bonnyrigg Sports Club,-33.887778,150.873611
Hong Kong Rangers FC,Sham Shui Po Sports Ground,22.3371,114.152
El Paso Locomotive FC,New El Paso Ballpark,31.759,-106.493
Doxa Katokopias F.C.,Peristerona Stadium,35.129167,33.083889
PFC Levski Sofia,Georgi Asparuhov Stadium,42.705467,23.363197
S.S. Juve Stabia,Stadio Romeo Menti,40.706667,14.494444
Tokyo Verdy,Ajinomoto Stadium,35.664278,139.527139
CD Vitoria,Q8845318,43.1517,-2.97306
SV Meppen,Hänsch-Arena,52.7081,7.29806
PFC Ludogorets Razgrad,Ludogorets Arena,43.53361111,26.5275
SC Oțelul Galați,Stadionul Oțelul,45.430236,28.022378
Brescia Calcio,Stadio Mario Rigamonti,45.570556,10.236944
FC Karpaty Lviv,Ukraina Stadium,49.819234,24.048193
UCAM Murcia CF,Q5847924,37.9217,-1.19333
Al-Taawon FC,King Abdullah Sport City Stadium,26.3789,43.9478
FK Jonava,Central stadium of Jonava,55.078056,24.271389
FK Pohronie,Mestský štadión Žiar nad Hronom,48.58733333,18.86333333
Trabzonspor,Şenol Güneş Stadium,40.9987,39.6463
FC Barcelona,Ciutat Esportiva Joan Gamper,41.37583333,2.05222222
S.U. 1º de Dezembro,Campo Conde Sucena,38.7881,-9.37472
MFK Vítkovice,Městský stadion,49.8044,18.2561
Pau Football Club,Nouste Camp,43.307676531902,-0.32523394167423
Colorado Rapids,Dick's Sporting Goods Park,39.805555555556,-104.89194444444
Peterborough United F.C.,London Road Stadium,52.564694,-0.240389
SC Kriens,Stadion Kleinfeld,47.029836,8.287797
Azul Claro Numazu,Shizuoka Ashitaka Athletic Stadium,35.152778,138.847778
GKS Bełchatów,Stadion GKS,51.365839,19.381692
FC Cincinnati,TQL Stadium,39.111388888889,-84.522222222222
Sukhothai F.C.,Thung Thalay Luang Stadium,17.061773,99.793703
Crusaders F.C.,Seaview,54.624294,-5.921925
SK Hanácká Slavia Kroměříž,Stadion SK Hanácká Slavia Kroměříž,49.289883,17.402386
Bray Wanderers A.F.C.,Carlisle Grounds,53.205714,-6.102889
Hassania Agadir,Stade d'Agadir,30.427213888889,-9.540425
LA Galaxy,Dignity Health Sports Park,33.864444444444,-118.26111111111
KF Liria,Përparim Thaçi Stadium,42.207037,20.729092
SO Romorantin,Stade Jules Ladoumègue,47.370208,1.740197
FC Ingolstadt 04,Audi Sportpark,48.745555555556,11.485
VfL Osnabrück,Stadion an der Bremer Brücke,52.280833,8.071111
FC Krasnodar,Krasnodar Stadium,45.044166666667,39.029444444444
SBV Vitesse,GelreDome,51.9625,5.893056
Fremad Amager,Sundby Idrætspark,55.6493,12.6016
Oxford United F.C.,Kassam Stadium,51.716419,-1.208067
FK Donji Srem,Suvača Sportcenter,44.9085,19.9743
IFK Luleå,Skogsvallen,65.59930833,22.16183333
Harrow Borough F.C.,Earlsmead Stadium,51.5584,-0.3723
C.A. Bella Vista,Estadio José Nasazzi,-34.861525,-56.209033
FC Eintracht Norderstedt 03,Edmund-Plambeck-Stadion,53.677,9.97705
Turan Tovuz IK,Tovuz City Stadium,40.992222,45.625556
Altay S.K.,Bornova Stadium,38.447,27.2622
Drogheda United F.C.,Hunky Dorys Park,53.723336,-6.357222
Club Aurora,Estadio Félix Capriles,-17.379303,-66.16183
Daegu FC,DGB Daegu Bank Park,35.881253,128.588231
Korabi,Korabi Stadium,41.680361111111,20.425305555556
ASEC Mimosas,Stade Municipal d'Abidjan,5.341944,-4.018889
CSM Pașcani,Stadionul CFR,47.25002222,26.71097778
Cardiff City F.C.,Cardiff City Stadium,51.472778,-3.203056
Cúcuta Deportivo,General Santander,7.894478,-72.501717
Mansfield Town F.C.,Field Mill,53.138056,-1.200556
Al-Jazeera,Amman International Stadium,33.522789,36.320161
Berwick Rangers F.C.,Shielfield Park,55.76,-2.01583
Persis Solo F.C.,Manahan Stadium,-7.555556,110.806389
Kasem Bundit University F.C.,BEC Tero Sasana Nong Chok Stadium,13.8684344,100.8470571
Real Kings F.C.,Chatsworth Stadium,-29.910398,30.877311
Al-Batin,Al-Batin Club Stadium,28.449402777778,46.075233333333
FK Partizan,Partizan Stadium,44.788611,20.459167
Union Sportive Madinet El Harrach,Stade 1er Novembre 1954,36.734444,3.131389
Club Valencia,Galolhu National Stadium,4.1740833333333,73.513083333333
Hellas Verona F.C.,Stadio Marcantonio Bentegodi,45.435356,10.968647
FK Mornar,Stadion Topolica,42.104444,19.09
FC Wohlen,Stadion Niedermatten,47.356997,8.264067
USL Dunkerque,Stade Marcel Tribut,51.03555556,2.39027778
Songkhla F.C.,Tinsulanonda Stadium,7.207222,100.598611
Norrby IF,Borås Arena,57.73457,12.934334
Beitar Tel Aviv Bat Yam F.C.,Hatikva Neighborhood Stadium,32.049986,34.786956
Bunamwaya S.C.,Bunamwaya Stadium,0.39611111,32.46944444
OFK Mladost Lješkopolje,Stari Ribnjak Stadium,42.41175,19.217361111111
FC Rostov,Rostov Arena,47.20833333,39.74166667
Wormatia Worms,Wormatia-Stadion,49.631381,8.335803
FC Milsami,CSR Orhei,47.3744,28.8192
AFC Metalul Buzău,Stadionul Cornel Negoescu,45.14472222,26.80277778
BSC Old Boys,Stadion Schützenmatte,47.551480555556,7.5713083333333
Renofa Yamaguchi FC,Yamaguchi Ishin Park Stadium,34.154444,131.4375
Baroka F.C.,Ngwana Mohube Sports Ground,-24.3049,29.6234
Club Blooming,Estadio Ramón Tahuichi Aguilera,-17.796067,-63.183873
FC Košice,Košice football arena,48.696666666667,21.245277777778
CS Sedan Ardennes,Stade Louis Dugauguez,49.694147,4.938847
RNK Split,Stadion Park mladeži,43.519038,16.444033
Sunderland A.F.C.,Stadium of Light,54.9144,-1.3882
Vejle Boldklub,Vejle Stadion,55.71372,9.5562
Doncaster Rovers F.C.,Keepmoat Stadium,53.509722,-1.113889
Club Olimpia Deportivo,Estadio Tiburcio Carías Andino beach,14.098403,-87.203978
Harrogate Town A.F.C.,Wetherby Road,53.991666666667,-1.5144444444444
FC Ararat Yerevan,Republican Stadium,40.171944,44.525833
Llanelli A.F.C.,Stebonheath Park,51.6839,-4.1476
SC Austria Lustenau,Reichshofstadion,47.4211,9.65278
Tlaxcala F.C.,Estadio Tlahuicole,19.32555556,-98.23027778
Bnei Sakhnin F.C.,Doha Stadium,32.866692,35.31085
ND Slovan,Kodeljevo Sports Park,46.050375,14.53314167
BSC Young Boys,Stadion Wankdorf,46.962778,7.465
Partizán Bardejov,Mestský štadión Bardejov,49.28933333,21.27233333
Al-ittihad,Stadium Tripoli International,32.859869,13.135878
Marsaxlokk F.C.,Marsaxlokk Ground,35.841667,14.544722
Blackpool F.C.,Bloomfield Road,53.804722,-3.048056
Sông Lam Nghệ An F.C.,Vinh Stadium,18.669015,105.669508
Al Wasl FC,Za'abeel Stadium,25.2189,55.317147222222
Deportes Iquique,Estadio Tierra de Campeones,-20.242413,-70.132937
Chorley F.C.,"Victory Park, Chorley",53.6455,-2.62921
SFC Opava,Stadion v Městských sadech,49.949725,17.890092
A.C. Milan,Stadio Giuseppe Meazza,45.478055,9.123947
Nacional Atlético Clube,Estádio Nicolau Alayon,-23.518083333333,-46.68525
FCV Farul Constanța,Viitorul Stadium,44.26388889,28.55583333
KSZO Ostrowiec Świętokrzyski,"Miejski Stadion Sportowy ""KSZO""",50.924444,21.379444
Cosenza Calcio,Stadio San Vito,39.31,16.2308
Ala'ab Damanhour,Ala'ab Damanhour Stadium,31.0375,30.456944
IFK Värnamo,Finnvedsvallen,57.19591667,14.04280556
Al-Gharafa Sports Club,Thani bin Jassim Stadium,25.34474,51.440562
Msida Saint-Joseph F.C.,Ta' Qali National Stadium,35.894863888889,14.415372222222
Maziya S&RC,Galolhu National Stadium,4.1740833333333,73.513083333333
Real Betis B,Ciudad Deportiva Luis Del Sol,37.3517,-5.98222
NorthEast United FC,Sarusajai Stadium (Guwahati),26.115669,91.760297
Airbus UK Broughton F.C.,The Airfield,53.171492,-2.981519
AB Tårnby,Q16324968,55.6036,12.5903
Besëlidhja Lezhë,Brian Filipi Stadium,41.77605556,19.64466111
FK Jagodina,Jagodina City Stadium,43.96885,21.268411
Dunakanyar-Vác FC,Stadion Városi Vác,47.7676,19.1382
FC Bălți,Stadionul Orășenesc,47.755278,27.913611
Hamilton Academical F.C.,New Douglas Park,55.7822,-4.0585
ND Gorica,Nova Gorica Sports Park,45.955931,13.641563
FC Shakhtar Donetsk,Donbass Arena,48.020833,37.809722
RKC Waalwijk,Mandemakers Stadion,51.686944,5.088611
Urawa Red Diamonds,Saitama Stadium 2002,35.903142,139.717492
Persebaya Surabaya,Gelora Bung Tomo Stadium,-7.225142,112.621708
FK Púchov,Mestský štadión (Púchov),49.1175,18.32
SSVg Velbert,Q2326144,51.3289,7.01857
FK Novi Pazar,Novi Pazar City Stadium,43.134236,20.516067
Tshakhuma Tsha Madzivhandila F.C.,Thohoyandou Stadium,-22.9863,30.4625
FC Aksu,Pavlodar Central Stadium,52.276383,76.949712
VfB Oldenburg,Marschweg-Stadion,53.129167,8.206389
Club Deportes Concepción,Estadio Ester Roa Rebolledo,-36.815278,-73.023333
NEROCA F.C.,Khuman Lampak Main Stadium,24.822691,93.95245
Maccabi Sha'arayim F.C.,Ness Ziona Stadium,31.915394,34.775203
Kidderminster Harriers F.C.,Aggborough,52.380472222222,-2.2426527777778
CAPS United F.C.,National Sports Stadium,-17.8214,30.9947
BFC Dynamo,Sportforum Hohenschönhausen,52.54,13.4764
SD Amorebieta,Urritxe,43.2210502,-2.7254464
Unión San Felipe,Estadio Municipal de San Felipe,-32.746944,-70.73
Real Aranjuez CF,"Estadio Municipal El Deleite, Aranjuez",40.025566666667,-3.6066083333333
Stabæk Fotball,Nadderud Stadion,59.921111,10.581111
FK Rabotnički,Toše Proeski Arena,42.005733,21.425592
FC Lokomotiv Moscow,RZD Arena,55.80355,37.741169
TSV 1860 München,Grünwalder Stadion,48.110833,11.574444
Al-Jeel,Prince Abdullah bin Jalawi Stadium,25.305833,49.612778
Sport Club Corinthians Paulista B,Estádio Parque São Jorge,-23.526833,-46.568469
Wuppertaler SV,Stadion am Zoo,51.239083,7.105083
VfB Lübeck,Stadion an der Lohmühle,53.881111,10.668889
FC Pirin Blagoevgrad,Hristo Botev Stadium,42.026389,23.1
Cruzeiro E.C.,Mineirão,-19.865833,-43.970833
New Mexico United,Isotopes Park,35.069722222222,-106.62916666667
Trikala F.C.,Trikala Municipal Stadium,39.552089,21.777019
Riffa S.C.,Bahrain National Stadium,26.153594,50.543664
IK Oddevold,Rimnersvallen,58.35666667,11.95
Mosta F.C.,Mosta Ground,35.90472222,14.43472222
Tampico Madero,Estadio Tamaulipas,22.279988,-97.850773
FC Haka,Tehtaan kenttä,61.268056,24.020278
JEF United Chiba,Fukuda Denshi Arena,35.577545,140.122912
Pyramids F.C.,30 June Stadium,30.0199,31.3737
F.C. Ferreiras,Estadio da Nora,37.12444444,-8.24333333
Al-Orobah F.C.,Al-Oruba Club Stadium,29.8780031,40.1043057
Al Urooba,Al-Oruba Club Stadium,29.8780031,40.1043057
F.C. Magpies,Victoria Stadium,36.149356,-5.350342
Frosinone Calcio,Benito Stirpe Stadium,41.63426,13.321866
Umm Salal SC,Thani bin Jassim Stadium,25.34474,51.440562
FC Sheriff-2 Tiraspol,Sheriff Stadium,46.838333,29.5575
Melita F.C.,Ta' Qali National Stadium,35.894863888889,14.415372222222
Club Universidad Nacional,Universitary Olympic Stadium,19.331928,-99.192106
CD Mensajero,Q21057365,28.6875,-17.774097222222
Racing de Santander,Campos de Sport de El Sardinero,43.476389,-3.793333
SK Vorwärts Steyr,Vorwärts Stadium,48.037701,14.410528
LB Châteauroux,Stade Gaston Petit,46.802028,1.721614
FK Tomori Berat,Tomori Stadium,40.698889,19.964444
Al Ain FC,Hazza bin Zayed Stadium,24.2456,55.7166
FC Hradec Králové,Všesportovní stadion,50.206111,15.845278
Wellington Phoenix FC Reserves,Newtown Park,-41.320278,174.7825
Detroit City FC,Keyworth Stadium,42.3924,-83.0489
Hapoel Nof HaGalil F.C.,Green Stadium,32.6898,35.311325
F.C. Verbroedering Dender Eendracht Hekelgem,Florent Beeckmanstadion,50.883889,4.070833
JS Kabylie,1 November 1954 Stadium,36.706944,4.056111
Ococias Kyoto AC,Yamashiro Park Taiyogaoka Stadium,34.869722,135.803889
Sporting San Miguelito,Estadio Bernardo Gil,9.030556,-79.498333
Queen's Park F.C.,Hampden Park,55.825863888889,-4.2520027777778
Bałtyk Gdynia,Stadion GOSiR,54.493136,18.531214
Albirex Niigata,Tohoku Electric Power Big Swan Stadium,37.8825,139.05916666667
USM Bel-Abbès,Stade 24 Fevrier 1956,35.19972222,-0.63138889
Stevenage F.C.,Broadhall Way,51.889839,-0.193608
A.S.D. Acireale Calcio 1946,Stadio Tupparello,37.6014,15.1585
FK Smederevo,Smederevo City Stadium,44.660633,20.901733
Athletic 220 FC,MFF Football Centre,47.9,106.916111
U.S. Alessandria Calcio 1912,Stadio Giuseppe Moccagatta,44.9203,8.6165805555556
Wadi Degla SC,Cairo Military Academy Stadium,30.1111,31.3676
Cienciano,Estadio Garcilaso,-13.525,-71.966
FK Borac Banja Luka,Gradski stadion,44.7761,17.1996
V-Varen Nagasaki,Nagasaki Athletic Stadium,32.838611,130.039444
Shabab Al-Khaleel,Hussein Bin Ali Stadium,31.53722222,35.09916667
FC Gossau,Q2312361,47.4104,9.2543
Juventus F.C. Youth Sector,Juventus Center,44.97777778,7.61611111
NK Lučko,Stadion Lučko,45.763027777778,15.868777777778
Bala Town F.C.,Maes Tegid,52.912222,-3.601389
FC Sakhalin Yuzhno-Sakhalinsk,Otkrytie Bank Arena,55.8178,37.4403
Milton Keynes Dons F.C.,Stadium MK,52.009444,-0.733333
Büyükşehir Belediye Erzurumspor,Kazım Karabekir Stadium,39.911,41.238
FC Dinamo București II,Stadionul Florea Dumitrache,44.4575,26.1025
FK RFS,Jānis Skredelis' stadium,56.9332,24.0883
Al Ahli SC,Al-Ahly Stadium,25.25189167,51.53536111
NK Travnik,Stadion Pirota,44.2247,17.6454
C.D. Guadalajara,Estadio Akron,20.681667,-103.462778
Stade Malherbe Caen,Stade Michel d'Ornano,49.179444,-0.39675
Lech Poznań,Stadion Miejski,52.397222,16.858056
Inverness Caledonian Thistle F.C.,Caledonian Stadium,57.494722,-4.2175
Lincoln City F.C.,Sincil Bank,53.218289,-0.540811
Europa FC,Victoria Stadium,36.149356,-5.350342
Ballinamallard United F.C.,Ferney Park,54.425,-7.59311
FK Karaorman,Gradska Plaža Stadium,41.1728,20.6842
FC Torpedo Moscow,Eduard Streltsov Stadium,55.716389,37.656389
Southport F.C.,Haig Avenue,53.638089,-2.978856
Palamós CF,Estadi Palamós Costa Brava,41.853484,3.12138
NK Inter Zaprešić,Stadion ŠRC Zaprešić,45.864722,15.799722
Blyth Spartans A.F.C.,Croft Park,55.1209,-1.5112
U.S. Avellino 1912,Stadio Partenio-Adriano Lombardi,40.926944,14.7925
FK Belasica,Stadion Mladost,41.4462,22.637708
Mouloudia Club of Algiers,Stade 5 Juillet 1962,36.759889,2.995194
Club Deportivo Lugo,Estadio Anxo Carro,43.003333,-7.570833
Heidelberg United FC,Olympic Park,-37.739722,145.034167
Hapoel Be'er Sheva F.C.,Turner Stadium,31.2731,34.7794
Paraná Clube,Estádio Vila Capanema,-25.439444,-49.255833
Elverum Fotball,Elverum stadion,60.8879791,11.5547995
Liga Deportiva Universitaria de Quito,CASA BLANCA,-0.107694,-78.489083
FC Sioni Bolnisi,Tamaz Stephania Stadium,41.447996,44.535185
Sport Boys,Estadio Miguel Grau,-12.05972,-77.11995
San Luis de Quillota,Estadio Municipal Lucio Fariña Fernández,-32.8876,-71.252
Pors Grenland,Pors Stadion,59.152127,9.642842
Udinese Calcio,Stadio Friuli,46.081603,13.200136
AMORETTI,La Paz,-16.494166666667,-68.1475
IF Brommapojkarna,Grimsta IP,59.362222222222,17.851666666667
Llandudno F.C.,Maesdu Park,53.3158,-3.8296
Al-Hilal SC,Martyrs of February Stadium,32.083333,20.266667
Kamatamare Sanuki,Kagawa Marugame Stadium,34.261632,133.78592
CS Minaur Baia Mare,Stadionul Viorel Mateianu,47.6645,23.5793
CF Motril,Estadio Escribano Castilla,36.75444167,-3.51277778
Rotherham United F.C.,New York Stadium,53.4279,-1.362
Sporting Gijón,El Molinón-Enrique Castro Quini,43.536111,-5.637222
VfL Bochum,Ruhrstadion,51.489944,7.236489
Coquimbo Unido,Estadio Francisco Sánchez Rumoroso,-29.965278,-71.338333
MŠK Žilina,Štadión pod Dubňom,49.229167,18.744722
Dundee United F.C.,Tannadice Park,56.474703,-2.968961
Örebro SK,Behrn Arena,59.26611111,15.22305556
Kettering Town F.C.,Nene Park,52.328033,-0.599992
PFC Minyor Pernik,Minyor Stadium,42.606667,23.023333
Arosa SC,Q20543011,42.58857778,-8.76604444
Kayserispor,Kadir Has Stadium,38.736944444444,35.423055555556
Wisła Kraków,Stadion Miejski in Kraków,50.063611,19.911944
Deportivo de La Coruña,Estadio Municipal de Abanca Riazor,43.368667,-8.417372
Southend United F.C.,Roots Hall,51.549,0.701556
Novelda CF,Q5054416,38.3867,-0.756168
Derby County F.C.,Pride Park Stadium,52.915,-1.4472222222222
Antalyaspor,Akdeniz University Stadium,36.893611111111,30.646666666667
Caudal Deportivo,Estadio Hermanos Antuña,43.256572222222,-5.7802416666667
Club Sport Emelec,Estadio George Capwell,-2.206603,-79.893758
NK Celje,Stadion Z'dežele,46.246667,15.270278
Stjarnan,Stjörnuvöllur,64.087423,-21.928865
AS Cherbourg Football,Q2325877,49.64324444,-1.63821944
AS Monaco FC,Stade Louis II,43.727778,7.415556
York United FC,York Lions Stadium,43.7747,-79.5068
Al-Wahda S.C.C.,Al Nahyan Stadium,24.469397222222,54.375252777778
GKS 1962 Jastrzębie,City Stadium Jastrzębie-Zdrój,49.95,18.611944
C.D. Trofense,Estádio do Clube Desportivo Trofense,41.332833,-8.564367
Southampton F.C.,St Mary's Stadium,50.90583333,-1.39111111
Zug 94,Herti Allmend Stadion,47.1779,8.5085
St. George's F.C.,Ta' Qali National Stadium,35.894863888889,14.415372222222
Adelaide United Football Club,Hindmarsh Stadium,-34.9075,138.568889
S.C. Braga B,Estádio 1º de Maio,41.5388,-8.4209
FC Dunărea Călărași,Stadionul Ion Comșa,44.200718,27.327948
S.S.C. Napoli,Stadio Diego Armando Maradona,40.827967,14.193008
Gabala FC,Gabala City Stadium,40.985194444444,47.8425
VfB Germania Halberstadt,Friedensstadion,51.8764,11.0501
Ravshan Kulob,Langari Langarieva Stadium,37.915917,69.800944
Tochigi SC,Tochigi Green Stadium,36.556667,139.986667
TSG 1899 Hoffenheim II,Dietmar-Hopp-Stadion,49.2783,8.84212
SC Preußen Münster,Preußenstadion,51.929722,7.624583
Condal Club,Estadio Alejandro Ortea,43.391944,-5.704167
TuS Koblenz,Stadion Oberwerth,50.3305,7.58661
Motherwell F.C.,Fir Park,55.779947,-3.980078
Córdoba CF,Estadio Nuevo Arcángel,37.872294,-4.764642
Raja Club Athletic,Stade Mohamed V,33.582867,-7.646817
Unión de Santa Fe,Estadio 15 de Abril,-31.631853,-60.715867
CS Luceafărul Oradea,Stadionul Luceafărul,47.00741667,21.97794444
Palencia CF,Estadio Nueva Balastera,42.011739,-4.516136
A.C. Marinhense,Estádio Municipal da Marinha Grande,39.736977,-8.931459
F.C. Annecy,"Parc des Sports, Annecy",45.917081,6.120092
Deportivo La Guaira F.C.,Estadio Olímpico,10.491278,-66.885492
SD Leioa,Q12267105,43.33388889,-2.98611111
Chiangmai United F.C.,700th Anniversary Stadium,18.839722,98.959444
Boldklubben af 1893,Østerbro Stadium,55.704,12.5747
MSP Batna,Stade of 1st November 1954,35.557222,6.187778
Liverpool F.C.,Estadio Belvedere,-34.854922,-56.225689
KF Drenasi,Rexhep Rexhepi Stadium,42.616446,20.903551
Racing Club de Ferrol,Estadio Municipal da Malata,43.491258,-8.239017
FC Lausanne-Sport,Stade Olympique de la Pontaise,46.534,6.625
ŠD NŠ Mura 05,Fazanerija City Stadium,46.668611,16.1575
Falkirk F.C.,Falkirk Stadium,56.005136,-3.754269
Spezia Calcio,Stadio Alberto Picco,44.102222,9.808611
San Antonio FC,Toyota Field,29.538908,-98.394617
Selenge Press,MFF Football Centre,47.9,106.916111
AFC Wimbledon,Plough Lane,51.431363888889,-0.18666944444444
FC Arsenal Tula,Arsenal Stadium,54.174167,37.603056
A.S.G. Nocerina,Stadio San Francesco d'Assisi,40.747319,14.652581
FC Metalist Kharkiv,Metalist Stadium,49.980858,36.261703
FC Kryvbas Kryvyi Rih,Zhovtneva Mine Stadium,47.993611111111,33.435833333333
Səbail FK,Bayil Stadium,40.332217,49.817664
Cerezo Osaka,Yodoko Sakura Stadium,34.615339,135.516572
De Graafschap,De Vijverberg,51.955833,6.309722
MFK Skalica,Mestský štadión Skalica,48.83953611,17.22668611
FC Graffin Vlašim,Stadion Kollárova ulice,49.702603,14.8915
AC Bellinzona,Stadio Comunale Bellinzona,46.198082,9.022304
A.S. Casale Calcio,Stadio Natale Palli,45.13130153,8.4451282
Terrassa FC,Estadi Olímpic de Terrassa,41.576133,2.011142
FC Veres Rivne,Avanhard Stadium,50.616111,26.240833
F.C. Lorient,Stade du Moustoir,47.748256,-3.369733
Norwich City F.C.,Carrow Road,52.622128,1.308653
U.C. AlbinoLeffe,Stadio Atleti Azzurri d'Italia,45.708889,9.680833
Hebei F.C.,Qinhuangdao Olympic Sports Center Stadium,39.907222222222,119.54777777778
Landskrona BoIS,Landskrona IP,55.88993333,12.83761111
North Carolina FC,WakeMed Soccer Park,35.7862,-78.7551
F.C. Ashdod,Yud-Alef Stadium,31.8104,34.6483
Naxxar Lions F.C.,Ta' Qali National Stadium,35.894863888889,14.415372222222
Ulsan Hyundai FC,Ulsan Munsu Football Stadium,35.535277777778,129.25944444444
FC Alga Bishkek,Dynamo Stadion,42.83722222,74.60083333
Torpedo Olleart FC,Torpedo Stadium,56.123528,40.392478
Oman FC,Sultan Qaboos Sports Complex,23.573055555556,58.399444444444
Kataller Toyama,Toyama Athletic Stadium,36.625056,137.195688
Sociedad Deportiva Aucas,Estadio Chillogallo,-0.278886,-78.546197
CS Sănătatea Servicii Publice Cluj,Stadionul Clujana,46.790278,23.612222
BÍ/Bolungarvík,Torfnesvöllur,66.072956,-23.136141
NK Slaven Belupo,Gradski stadion,46.166111,16.834722
Association Sportive Vita Club,Stade des Martyrs,-4.330417,15.31
Lokomotiv Tashkent,Lokomotiv Stadium,41.361111,69.395
Kickers Emden,Ostfriesland-Stadion,53.379167,7.203333
Olympique de Marseille,Stade Vélodrome,43.269722222222,5.3958333333333
Al-Suwaiq SC,Seeb Stadium,23.6189,58.2168
FC St. Gallen,kybunpark,47.408333,9.306389
Chiangmai F.C.,700th Anniversary Stadium,18.839722,98.959444
Ittihad Khemisset,Stade du 18 novembre,33.8177,-6.07642
Club Sportivo San Lorenzo,Estadio Gunther Vogel,-25.3428,-57.5008
Breiðablik UBK,Kópavogsvöllur,64.104167,-21.896667
Dartford F.C.,Princes Park,51.437172,0.2308
FC Victoria Rosport,VictoriArena,49.8085,6.50567
Jableh SC,Al-Baath Stadium,35.364167,35.926667
ES Hammam-Sousse,Stade Municipal Bou Ali-Lahouar,35.8549,10.5986
İskenderunspor,İskenderun 5 Temmuz Stadium,36.5851,36.1553
Gangwon FC,Gangneung Stadium,37.773561,128.897503
Club Juan Aurich,Estadio Elías Aguirre,-6.768333,-79.860833
Birmingham Legion FC,PNC Field,33.4980615,-86.8125946
Chonburi F.C.,Chonburi Municipality Stadium,13.364444,100.976389
Rio Ave F.C.,Estádio do Rio Ave FC,41.362756,-8.740186
Paris Saint-Germain F.C.,Parc des Princes,48.841388888889,2.2530555555556
Kagoshima United FC,Kagoshima Kamoike Stadium,31.564831,130.560186
KS Bylis Ballsh,Adush Muça Stadium,40.60194444,19.74083333
FC Andorra,Estadi Nacional,42.5046,1.51746
FC Metalist 1925 Kharkiv,Metalist Stadium,49.980858,36.261703
Atlético San Cristóbal,Estadio Polideportivo de Pueblo Nuevo,7.786389,-72.197778
FC Vihren Sandanski,Sandanski Stadium,41.57361111,23.28361111
Independiente Santa Fe,Estadio El Campín,4.6458888888889,-74.0775
Sporting CP B,Estádio José Alvalade,38.761194444444,-9.1607833333333
Kingstonian F.C.,Kingsmeadow,51.405083333333,-0.28194444444444
Swindon Town F.C.,"County Ground, Swindon",51.564444,-1.770556
Maryland Bobcats FC,Maryland SoccerPlex,39.1527,-77.3101
VVV-Venlo,De Koel,51.351944,6.179722
FK Javor Ivanjica,Stadion Ivanjica,43.586122,20.227239
Tennis Borussia Berlin,Mommsenstadion,52.500833,13.264167
ACB Ineu,Stadionul Central-Parc,46.42463889,21.83275
FC Osaka,Hattori Ryokuchi Athletics Field,34.779194,135.484778
Hapoel Acre A.F.C.,Acre Municipal Stadium,32.907897,35.086067
FC Ufa,BetBoom Arena,54.8259,56.0614
Kaya F.C.,University of Makati Stadium,14.5636,121.057
Kirkop United F.C.,Ta' Qali National Stadium,35.894863888889,14.415372222222
Stal Mielec,Stadion Stali Mielec,50.298611,21.435833
Real Racing Club,Nuevo Estadio Los Pajaritos,41.754444,-2.467778
Szolnoki MÁV FC,Tiszaligeti Stadion,47.168056,20.199722
Royale Union Saint-Gilloise,Stade Joseph Marien - Joseph Marienstadion,50.8178,4.32917
FC Concordia Basel,Stadion Rankhof,47.561194444444,7.6200138888889
Real Valladolid,Estadio Nuevo José Zorrilla,41.644444,-4.761111
FC Naftovyk-Ukrnafta Okhtyrka,Naftovyk Stadium,50.298611,34.889722
S.L. Benfica B,Estádio da Luz,38.752677777778,-9.1846805555556
Poitiers FC,Stade Michel-Amand,46.5951845,0.3641732
FK Senica,Štadión FK Senica,48.684133,17.376808
MO Constantine,Stade Mohamed Hamlaoui,36.349167,6.625833
USM Alger,Omar Hamadi Stadium,36.801055,3.048111
Istiqlol Dushanbe,Pamir Stadium,38.58590556,68.76951111
Persepar Palangkaraya,Tuah Pahoe Stadium,-2.21,113.92
KS Tërbuni Pukë,Ismail Xhemali Stadium,42.0499,19.898
Deportivo Marquense,Estadio Marquesa de la Ensenada,14.967045,-91.7917
AEZ Zakakiou,Zakaki Community Stadium,34.640445,33.00602
Sài Gòn F.C.,Thong Nhat Stadium,10.760703,106.663331
SC Cambuur,Cambuur Stadion,53.205278,5.814722
K.F. Tirana,Selman Stërmasi Stadium,41.31898056,19.81138333
St Johnstone F.C.,Muirton Park,56.40615556,-3.44614722
Al-Merrikh SC,Al-Merrikh Stadium,15.641278,32.471556
Zagłębie Sosnowiec,Stadion Ludowy,50.277222222222,19.103611111111
P.A.E. Apollōn Pontou,Kalamaria Stadium,40.581475,22.94511389
Jaguares de Córdoba,Estadio Jaraguay,8.7117777777778,-75.827638888889
CF Rayo Majadahonda,Estadio Cerro del Espino,40.457558333333,-3.8602861111111
Tampa Bay Rowdies,Tampa Stadium,27.978888888889,-82.503611111111
Seoul Nowon United FC,Nowon Madeul Stadium,37.643982,127.057557
UD Marbella,Estadio Municipal de Marbella,36.51166667,-4.87888889
Podbeskidzie Bielsko-Biała,Stadion Miejski,49.817419,19.054267
Qadsia SC,Mohammed Al-Hamad Stadium,29.34,48.030277777778
Zawisza Bydgoszcz,Zdzisław Krzyszkowiak Stadium,53.145556,18.020556
SSV Ulm 1846,Donaustadion,48.404589,10.009575
FC Mamer 32,Stade François Trausch,49.6243,6.0248
Cambridge United F.C.,Abbey Stadium,52.2114,0.153
HNK Cibalia,Stadion HNK Cibalia,45.283742,18.797382
Wigan Athletic F.C.,DW Stadium,53.547778,-2.653889
FC Sportist Svoge,Chavdar Tsvetkov Stadium,42.962222,23.35
Alianza Petrolera F.C.,Atanasio Girardot Sports Complex,6.2568,-75.590172
Aurora Pro Patria 1919,Stadio Carlo Speroni,45.6135074,8.8807582
Defensa y Justicia,"Estadio Norberto ""Tito"" Tomaghello",-34.821753,-58.286511
Port F.C.,PAT Stadium,13.71515,100.559717
CF Pachuca,Hidalgo Stadium,20.105144,-98.756114
Club de Deportes Limache,Q105159258,-33.012223,-71.25756
Hapoel Umm al-Fahm F.C.,HaShalom Stadium,32.533180555556,35.155788888889
FC Dordoi Bishkek,Spartak Stadium,42.880175,74.59793889
Al-Muharraq SC,Bahrain National Stadium,26.153594,50.543664
Independiente del Valle,Estadio Rumiñahui,-0.329167,-78.445
FC Helsingør,Helsingør Stadion,56.0458,12.5968
Lisburn Distillery F.C.,New Grosvenor Stadium,54.535925,-6.003733
JS Kairouan,Stade Ali Zouaoui,35.6663,10.1094
Lyngby Boldklub,Lyngby Stadion,55.7811,12.5058
Shenzhen F.C.,Shenzhen Stadium,22.562175,114.086989
Lynx F.C.,Victoria Stadium,36.149356,-5.350342
Al-Qadisiyah FC,Prince Saud bin Jalawi Stadium,26.3699,50.2052
Kitchee SC,Mong Kok Stadium,22.3261,114.173
Al-Naft,Al Naft Stadium,36.85187,42.996154
Eintracht Frankfurt,Waldstadion,50.068611,8.645278
FC Slonim,Yunost Stadium,53.0975,25.3069
BFC Siófok,Révész Street Stadium,46.909166666667,18.061388888889
First Vienna FC,Casino-Stadion Hohe Warte,48.2489,16.3597
ZESCO United F.C.,Levy Mwanawasa Stadium,-12.975,28.611389
Standard Liège,Stade Maurice Dufrasne,50.609908,5.543344
Team TG FF,Umeå Energi Arena,63.83,20.285277777778
FK Spartak Subotica,Subotica City Stadium,46.081781,19.676958
Suwon FC,Suwon Sports Complex,37.297746,127.011315
RC Strasbourg,Stade de la Meinau,48.560064,7.754969
FK Pljevlja 1997,Gradski stadion,43.362349,19.362245
VFC Plauen,Vogtlandstadion,50.5235,12.1259
Yeovil Town F.C.,Huish Park,50.950278,-2.674881
Oriente Petrolero,Estadio Ramón Tahuichi Aguilera,-17.796067,-63.183873
Al Ahed FC,Al Ahed Stadium,33.811666666667,35.506388888889
Ventforet Kofu,JIT Recycle Ink Stadium,35.622376,138.589756
Mamelodi Sundowns F.C.,Loftus Versfeld Stadium,-25.753189,28.223014
Forest Green Rovers F.C.,The New Lawn,51.6984,-2.233233
Imbabura Sporting Club,Antonio Ante Canton,0.32,-78.21
Ebbsfleet United F.C.,Stonebridge Road,51.449539,0.322272
ND Lendava 1903,Lendava Sports Park,46.559528,16.4508
UE Santa Coloma,Estadi Comunal d'Aixovall,42.476389,1.487667
SSV Jahn Regensburg,Arena Regensburg,48.9909,12.1069
FC Gomel,Central Stadium,52.436527777778,31.012361111111
Wolfsberger AC,Lavanttal-Arena,46.8253,14.8514
Resistencia S.C.,Q5848420,-25.279934,-57.62559
Genoa CFC,Stadio Luigi Ferraris,44.416431,8.952428
Al-Raed FC,King Abdullah Sport City Stadium,26.3789,43.9478
Suphanburi F.C.,Suphanburi Municipality Stadium,14.474082,100.086596
Birmingham City F.C.,St Andrew's,52.475702777778,-1.8681888888889
KF Erzeni Shijak,Tefik Jashari Stadium,41.58277778,19.93194444
NK Jedinstvo Bihać,Stadion pod Borićima,44.8067,15.864
Polonia Warsaw,Stadion Polonii Warszawa,52.255517,21.001322
Middelfart G&BK,Middelfart Stadion,55.5047,9.71571
Deportivo Lara,Estadio Metropolitano de Fútbol de Lara,9.993544,-69.219858
Monagas Sport Club,Estadio Monumental de Maturín,9.71,-63.2677
L'Aquila Calcio 1927,Stadio Tommaso Fattori,42.356389,13.403889
UD Poblense,Q75964697,39.760665,3.02004
FC Torpedo Kutaisi,Ramaz Shengelia Stadium,42.255141666667,42.683086111111
Kremser SC,Sepp-Doll-Stadion,48.4064,15.5981
CD Castellón,Nou Estadi Castalia,39.996053,-0.038792
DNŠ Primorje,Ajdovščina Football Stadium,45.8881692,13.8944436
ND Beltinci,Beltinci Sports Park,46.6075,16.2292
Floriana F.C.,Ta' Qali National Stadium,35.894863888889,14.415372222222
Dreams Football Club,Hammer Hill Sports Ground,22.33829,114.20735
UE Sant Andreu,Camp Municipal Narcís Sala,41.428836,2.193047
San Martín de Mendoza,Estadio San Martín,-32.890681,-68.863192
Gyirmót SE,Ménfői úti Stadion,47.6328867,17.5926924
KV Mechelen,AFAS Stadion KV Mechelen,51.037222,4.486389
Barnet F.C.,The Hive Stadium,51.6026,-0.291785
FC Rapid 1923,Stadionul Regie,44.448194,26.052872
Palermo FC,Stadio Renzo Barbera,38.152767,13.342275
KS Lushnja,Abdurrahman Roza Haxhiu Stadium,40.935425,19.70964444
Abia Warriors F.C.,Umuahia Township Stadium,5.5241666666667,7.4968055555556
SC Dnipro-1,Dnipro Arena,48.460333,35.032472
Paradou AC,Omar Hamadi Stadium,36.801055,3.048111
Newry City F.C.,The Showgrounds,54.150444,-6.320606
NK Koprivnica,Gradski stadion,46.166111,16.834722
Athletic Bilbao B,Lezama Facilities,43.2775,-2.83932
Hafia Football Club,Stade du 28 Septembre,9.54586111,-13.67291667
C.D. Honduras,Estadio Humberto Micheletti,15.400672,-87.815287
Besançon R.C.,Léo Lagrange stadium,47.243847,6.003274
Shonan Bellmare,Shonan BMW Stadium Hiratsuka,35.343608,139.341263
Defensor Sporting Club,Estadio Luis Franzini,-34.916666666667,-56.166666666667
Ferencvárosi TC II,Groupama Arena,47.475277777778,19.096111111111
Stafford Rangers F.C.,Marston Road,52.818542,-2.116858
Al-Feiha FC,Prince Salman Bin Abdulaziz Sport City Stadium,25.886929,45.368021
Real C.D. España,Estadio General Francisco Morazán,15.507468,-88.033592
Persik Kediri,Brawijaya Stadium,-7.817041,112.028602
Bradford City A.F.C.,Valley Parade,53.804222222222,-1.7590222222222
FC Oleksandriya,CSC Nika Stadium,48.674722,33.103611
E.C. Vitória,Barradão,-12.917926,-38.428117
Spartak Myjava,Stadium Myjava,48.76118,17.5656
Guiseley A.F.C.,Nethermoor Park,53.87717819,-1.71943057
Unión Huaral,Estadio Julio Lores Colán,-11.4967628,-77.2171497
FC Cartagena,Estadio Cartagonova,37.609746,-0.995977
FC Avanhard Kramatorsk,Avanhard Stadium,48.7189,37.5493
Santa Tecla F.C.,Estadio Las Delicias,13.671667,-89.299444
Suzhou Dongwu Football Club,Suzhou City Stadium,31.2965,120.573
FC Halifax Town,The Shay,53.716111,-1.859167
FC Volna Pinsk,Q4123576,52.124,26.1284
MFC Kremin Kremenchuk,FC Kremin Stadium,49.077248,33.428628
Finn Harps F.C.,Finn Park,54.798087698166,-7.779730672629
Hapoel Herzliya F.C.,Herzliya Municipal Stadium,32.167839,34.824793
Muangkan F.C.,Kanchanaburi Stadium,14.049855,99.502743055556
HŠK Zrinjski Mostar,Stadion pod Bijelim Brijegom,43.345556,17.795278
Stade Tunisien,Stade Chedli Zouiten,36.828863,10.170121
A.S. Martina Franca 1947,Stadio Gian Domenico Tursi,40.699722,17.343333
Associazione Sportiva Siracusa,Stadio Nicola De Simone,37.0743,15.2913
Società Polisportiva Ars et Labor,Stadio Paolo Mazza,44.839722,11.6075
Asante Kotoko F.C.,Baba Yara Stadium,6.682681,-1.605111
BFC Daugavpils,Celtnieks Stadium,55.874667,26.550619
Jeonnam Dragons FC,Gwangyang Football Stadium,34.93312,127.727478
Club Athletico Paranaense,Arena da Baixada,-25.448333,-49.276944
FK Viktoria Žižkov,FK Viktoria Stadion,50.083611,14.444444
Police Tero F.C.,72-years Anniversary Stadium,13.801944,100.790833
FC Rot-Weiß Erfurt,Steigerwaldstadion,50.960278,11.037222
ES Tunis,Olympic Stadium of Radès,36.747777777778,10.272777777778
Asociación Civil Mineros de Guayana,Polideportivo Cachamay,8.3125,-62.696667
Azam F.C.,Chamazi Stadium,-6.85415079,39.27325969
Reggina 1914,Stadio Oreste Granillo,38.092778,15.635278
Sakaryaspor,Sakarya Atatürk Stadium,40.777014,30.386558
FC Alania-d Vladikavkaz,Republican Spartak Stadium,43.023056,44.695
Botev Plovdiv,Hristo Botev Stadium,42.139861,24.764444
Tromsdalen UIL,Tromsdalen Stadion,69.645964,19.018053
S.S. Murata,Campo sportivo di Montegiardino,43.9149,12.4821
Polonia Bytom,Stadion Edwarda Szymkowiaka,50.35755833,18.89871667
Fulham F.C.,Craven Cottage,51.475,-0.22166666666667
AE Prat,Poliesportiu Municipal Sagnier,41.321678,2.082636
Orense S.C.,Estadio 9 de Mayo,-3.254467,-79.962497
F.C. Crotone,Stadio Ezio Scida,39.079167,17.116667
Catania S.S.D.,Stadio Angelo Massimino,37.515833,15.071389
Fuerte San Francisco,Estadio Luis Amílcar Moreno,13.7,-88.1
Villarreal CF,Estadio de la Cerámica,39.944167,-0.103611
Molde FK,Aker Stadion,62.73341,7.14813
F.C. Paços de Ferreira,Estádio da Mata Real,41.271353,-8.385581
Tonbridge Angels F.C.,Longmead Stadium,51.2115,0.2691
Plaza Colonia,Estadio Suppici,-34.46694444,-57.84527778
Sportfreunde Lotte,Stadion am Lotter Kreuz,52.270936,7.920444
C.D.P. Curi,Estadio La Granja,-34.974356,-71.230707
SK Austria Klagenfurt,Wörthersee Stadion,46.608847,14.278281
Nottingham Forest F.C.,City Ground,52.94,-1.132778
Xanthi F.C.,Xanthi FC Arena,41.121344,24.949372
GAIS,Gamla Ullevi,57.706111111111,11.980555555556
FC Tobol,Kostanay Central Stadium,53.225974,63.636578
Deportivo Alavés,Mendizorrotza Stadium,42.837111,-2.688044
Salto F.C.,"Estadio Parque ""Julio Pozzi""",-31.417832,-57.976474
FC Samtredia,Erosi Manjgaladze Stadium,42.16084,42.33064
F.B. Brindisi 1912,Stadio Franco Fanuzzi,40.64903,17.93813
Al-Faisaly SC,Amman International Stadium,33.522789,36.320161
Corwen F.C.,War Memorial Athletic Ground,52.4626,-2.15136
Glacis United F.C.,Victoria Stadium,36.149356,-5.350342
CFR Cluj,Stadionul Dr. Constantin Rădulescu,46.779678,23.577247
Sport Club do Recife,Estádio Ilha do Retiro,-8.0628888888889,-34.902888888889
MIO Biwako Shiga,Nunobiki Green Stadium,35.084732178261,136.19698954233
Eskişehirspor,New Eskişehir Stadium,39.7625,30.4677
FC WIT Georgia,Mtskheta Park,41.847286,44.721492
Medeama SC,TNA Park,5.30100012,-1.99240005
RANS Nusantara F.C.,Krakatau Steel Stadium,-5.99609,106.039656
FK Laktaši,Gradski stadion,44.907111,17.309472
Calcio Portogruaro Summaga,Stadio Piergiovanni Mecchia,45.775,12.831389
SD Logroñés,Estadio Las Gaunas,42.453333,-2.453333
Dayton Dutch Lions,Dayton Outpatient Center Stadium,39.6705,-84.2307
Heilongjiang Ice City F.C.,Harbin International Conference Exhibition and Sports Center,45.752092,126.701095
Cheongju FC,Cheongju Sports Complex,36.637851,127.472375
Melbourne City Football Club,Melbourne Rectangular Stadium,-37.825278,144.983889
Alta IF,Finnmarkshallen,69.9746,23.2955
Górnik Zabrze,Ernest Pohl Stadium,50.296317,18.768564
FK Nevėžis,Kėdainiai Stadium,55.29916667,23.9875
C.D. Santa Clara,Estádio de São Miguel,37.763708,-25.622589
Cortuluá,Estadio Olímpico Pascual Guerrero,3.429889,-76.541083
Auckland City FC,Kiwitea Street,-36.897799,174.736426
Shimizu S-Pulse,IAI Stadium Nihondaira,34.984444,138.481111
SpVgg Bayern Hof,Stadion Grüne Au,50.3148,11.9313
FAR Rabat,Prince Moulay Abdellah Stadium,33.959861,-6.889111
Club Destroyers,Estadio Ramón Tahuichi Aguilera,-17.796067,-63.183873
Botafogo F.R.,Estádio Nilton Santos,-22.893172,-43.292269
Atlético Saltillo,Estadio Olímpico Francisco I. Madero,25.43199444,-100.98033333
OC Khouribga,Complexe OCP,32.878191,-6.90738
UE Engordany,Estadi Comunal d'Aixovall,42.476389,1.487667
Hereford F.C.,Edgar Street,52.060719,-2.717711
U.S. Pergolettese 1932,Stadio Giuseppe Voltini,45.357778,9.675556
Çaykur Rizespor,Yeni Rize Şehir Stadı,41.042,40.5732
Cusco Fútbol Club,Estadio Garcilaso,-13.525,-71.966
Club Social y Deportivo Sacachispas,Estadio Las Victorias,14.7950799,-89.5444
Grêmio Football Porto Alegrense,Arena do Grêmio,-29.973444,-51.194403
FC Red Bull Salzburg,Red Bull Arena,47.81625,12.998222222222
FC Zbrojovka Brno,Městský fotbalový stadion Srbská,49.227162,16.586276
Hacettepe S.K.,Ankara 19 Mayıs Stadium,39.940094,32.845681
